{"protocolSection": {"identificationModule": {"nctId": "NCT03057977", "orgStudyIdInfo": {"id": "1245.121"}, "secondaryIdInfos": [{"id": "2016-002280-34", "type": "EUDRACT_NUMBER"}], "organization": {"fullName": "Boehringer Ingelheim", "class": "INDUSTRY"}, "briefTitle": "EMPagliflozin outcomE tRial in Patients With chrOnic heaRt Failure With Reduced Ejection Fraction (EMPEROR-Reduced)", "officialTitle": "A Phase III Randomised, Double-blind Trial to Evaluate Efficacy and Safety of Once Daily Empagliflozin 10 mg Compared to Placebo, in Patients With Chronic Heart Failure With Reduced Ejection Fraction (HFrEF)"}, "statusModule": {"statusVerifiedDate": "2021-04", "overallStatus": "COMPLETED", "expandedAccessInfo": {"hasExpandedAccess": false}, "startDateStruct": {"date": "2017-03-06", "type": "ACTUAL"}, "primaryCompletionDateStruct": {"date": "2020-05-01", "type": "ACTUAL"}, "completionDateStruct": {"date": "2020-05-28", "type": "ACTUAL"}, "studyFirstSubmitDate": "2017-02-16", "studyFirstSubmitQcDate": "2017-02-16", "studyFirstPostDateStruct": {"date": "2017-02-20", "type": "ACTUAL"}, "resultsFirstSubmitDate": "2021-04-26", "resultsFirstSubmitQcDate": "2021-04-26", "resultsFirstPostDateStruct": {"date": "2021-05-18", "type": "ACTUAL"}, "lastUpdateSubmitDate": "2021-04-26", "lastUpdatePostDateStruct": {"date": "2021-05-18", "type": "ACTUAL"}}, "sponsorCollaboratorsModule": {"responsibleParty": {"type": "SPONSOR"}, "leadSponsor": {"name": "Boehringer Ingelheim", "class": "INDUSTRY"}, "collaborators": [{"name": "Eli Lilly and Company", "class": "INDUSTRY"}]}, "oversightModule": {"oversightHasDmc": true, "isFdaRegulatedDrug": true, "isFdaRegulatedDevice": false}, "descriptionModule": {"briefSummary": "The aim of the study is to investigate the safety and efficacy of empagliflozin versus placebo on top of guideline-directed medical therapy in patients with heart failure with reduced ejection fraction."}, "conditionsModule": {"conditions": ["Heart Failure"]}, "designModule": {"studyType": "INTERVENTIONAL", "phases": ["PHASE3"], "designInfo": {"allocation": "RANDOMIZED", "interventionModel": "PARALLEL", "primaryPurpose": "TREATMENT", "maskingInfo": {"masking": "DOUBLE", "whoMasked": ["PARTICIPANT", "INVESTIGATOR"]}}, "enrollmentInfo": {"count": 3730, "type": "ACTUAL"}}, "armsInterventionsModule": {"armGroups": [{"label": "Empagliflozin", "type": "EXPERIMENTAL", "interventionNames": ["Drug: Empagliflozin"]}, {"label": "Placebo", "type": "PLACEBO_COMPARATOR", "interventionNames": ["Drug: Placebo"]}], "interventions": [{"type": "DRUG", "name": "Empagliflozin", "description": "once daily", "armGroupLabels": ["Empagliflozin"], "otherNames": ["JARDIANCE, JARDIANZ, GIBTULIO"]}, {"type": "DRUG", "name": "Placebo", "description": "once daily", "armGroupLabels": ["Placebo"]}]}, "outcomesModule": {"primaryOutcomes": [{"measure": "Time to the First Event of Adjudicated Cardiovascular (CV) Death or Adjudicated Hospitalisation for Heart Failure (HHF)", "description": "Time to the first event of adjudicated cardiovascular (CV) death or adjudicated hospitalisation for heart failure (HHF). The incidence rate per 100 patient years (100 \\* number of patients with event /time at risk \\[years\\]) is presented. With time at risk \\[year\\] calculated as: Sum of time at risk \\[days\\] over all patients in a treatment group / 365.25.\n\nPatients without a specific endpoint event were censored at the last date the patient was known to be free of the event or at the end of the planned treatment period, whichever was earlier.\n\nUnit of Measure: Patients with events per 100 patient-years (pt-yrs) at risk.", "timeFrame": "From randomisation until completion of the planned treatment period, up to 1040 days."}], "secondaryOutcomes": [{"measure": "Occurrence of Adjudicated Hospitalisation for Heart Failure (HHF) (First and Recurrent)", "description": "Reported is the total number of HHF events (first and recurrent) which occurred.\n\nAll data up to the end of the planned treatment period (including the data after the end of treatment for patients not completing the treatment period as planned) from all randomised patients was used.", "timeFrame": "From randomisation until completion of the planned treatment phase, up to 1040 days."}, {"measure": "eGFR (CKD-EPI) cr Slope of Change From Baseline", "description": "Glomerular filtration rate estimated by the chronic kidney disease epidemiology collaboration formula with serum creatinine measurement (eGFR (CKD-EPI)cr) \\[mL/min/1.73m2\\] slope of change from baseline.\n\nAvailable on-treatment change-from-baseline data were to be used. Patients without on-treatment data after randomisation were not to be included in this analysis. Slope represents the long term effect on eGFR.\n\nTimepoints after baseline were included in calculation of slope of change from baseline. Descriptive statistic (mean(standard error)) is reported.", "timeFrame": "Assessed at baseline, week 4, 12, 32, 52, 76, 100, 124, 148 and at end of treatment (EOT), up to 1040 days."}, {"measure": "Time to First Event in Composite Renal Endpoint: Chronic Dialysis, Renal Transplant or Sustained Reduction of eGFR(CKD-EPI)cr", "description": "Time to the first event in the composite renal endpoint: chronic dialysis (with a frequency of twice per week or more for at least 90 days), renal transplant, or sustained reduction in Glomerular filtration rate estimated by the chronic kidney disease epidemiology collaboration formula with serum creatinine measurement (eGFR (CKD-EPI)cr).\n\nThe incidence rate per 100 patient years (100 \\* number of patients with event /time at risk \\[years\\]) is presented. With time at risk \\[year\\] calculated as: Sum of time at risk \\[days\\] over all patients in a treatment group / 365.25.\n\nPatients without a specific endpoint event were censored at the last date the patient was known to be free of the event or at the end of the planned treatment period, whichever was earlier.\n\nUnit of Measure: Patients with events per 100 patient-years (pt-yrs) at risk.", "timeFrame": "From randomisation until completion of the planned treatment period, up to 1040 days."}, {"measure": "Time to First Adjudicated Hospitalisation for Heart Failure (HHF)", "description": "Time to first adjudicated Hospitalisation for Heart Failure (HHF). The incidence rate per 100 patient years (100 \\* number of patients with event /time at risk \\[years\\]) is presented. With time at risk \\[year\\] calculated as: Sum of time at risk \\[days\\] over all patients in a treatment group / 365.25. Patients without a specific endpoint event were censored at the last date the patient was known to be free of the event or at the end of the planned treatment period, whichever was earlier.\n\nUnit of Measure: Patients with events per 100 patient-years (pt-yrs) at risk.", "timeFrame": "From randomisation until completion of the planned treatment period, up to 1040 days."}, {"measure": "Time to Adjudicated Cardiovascular (CV) Death", "description": "Time to adjudicated CV (Cardiovascular) death. The incidence rate (patients with events per 100 person years at risk) is reported.\n\nThe incidence rate per 100 patient years (100 \\* number of patients with event /time at risk \\[years\\]) is presented. With time at risk \\[year\\] calculated as: Sum of time at risk \\[days\\] over all patients in a treatment group / 365.25.\n\nPatients without a specific endpoint event were censored at the last date the patient was known to be free of the event or at the end of the planned treatment period, whichever was earlier.\n\nUnit of Measure: Patients with events per 100 patient-years (pt-yrs) at risk.", "timeFrame": "From randomisation until completion of the planned treatment period, up to 1040 days."}, {"measure": "Time to All-cause Mortality", "description": "Time to all-cause mortality. The incidence rate (patients with events per 100 person years at risk) is reported.\n\nThe incidence rate per 100 patient years (100 \\* number of patients with event /time at risk \\[years\\]) is presented. With time at risk \\[year\\] calculated as: Sum of time at risk \\[days\\] over all patients in a treatment group / 365.25.\n\nPatients without a specific endpoint event were censored at the last date the patient was known to be free of the event or at the end of the planned treatment period, whichever was earlier.\n\nUnit of Measure: Patients with events per 100 patient-years (pt-yrs) at risk.", "timeFrame": "From randomisation until completion of the planned treatment period, up to 1040 days."}, {"measure": "Time to Onset of Diabetes Mellitus (DM)", "description": "Time to onset of DM (Glycated haemoglobin (HbA1c) \u22656.5% or as diagnosed by the investigator) in patients with pre-DM (no history of DM and no HbA1c \u22656.5% before treatment, and a pre-treatment HbA1c value of 5.7 to \\<6.5%). The incidence rate (patients with events per 100 person years at risk) is reported.\n\nThe incidence rate per 100 patient years (100 \\* number of patients with event /time at risk \\[years\\]) is presented. With time at risk \\[year\\] calculated as: Sum of time at risk \\[days\\] over all patients in a treatment group / 365.25.\n\nPatients without a specific endpoint event were censored at the last date the patient was known to be free of the event or at the end of the planned treatment period, whichever was earlier.\n\nUnit of Measure: Patients with events per 100 patient-years (pt-yrs) at risk.", "timeFrame": "From randomisation until completion of the planned treatment period, up to 1040 days."}, {"measure": "Change From Baseline in KCCQ (Kansas City Cardiomyopathy Questionnaire) Clinical Summary Score at Week 52", "description": "Change from baseline in KCCQ (Kansas City cardiomyopathy questionnaire) clinical summary score at Week 52. The KCCQ is a 23-item self-administered questionnaire designed to evaluate physical limitations, symptoms (frequency, severity, and changes over time), social limitations, selfefficacy, and quality of life in patients with Heart Failure. The KCCQ-clinical summary score comprises the following domains: Symptom frequency, symptom burden and physical limitation. The score is calculated by summing domain responses and then transforming scores to a 0-100 unit scale with higher scores indicating better health status.\n\nFor patients who died, a worst score (score of 0) is imputed at all subsequent scheduled visits after the date of death.\n\nStandard error is adjusted standard error. Change from baseline in KCCQ-score at week 52 was modeled using a MMRM with visit (week 12, 32 and 52) as repeated measures, adjusted mean (standard error) at week 52 is reported.", "timeFrame": "Assessed at baseline, week 12, week 32 and week 52."}, {"measure": "Number of All-cause Hospitalizations (First and Recurrent)", "description": "Number of all-cause hospitalizations (first and recurrent).", "timeFrame": "From randomisation until completion of the planned treatment phase, up to 1040 days."}]}, "eligibilityModule": {"eligibilityCriteria": "Inclusion criteria:\n\n* Male or female patient age \\>= 18 years at screening. For Japan only: Age \\>= 20 years at screening\n* Patients with chronic HF (Chronic Heart Failure) NYHA (New York Heart Association Classification) class II-IV and reduced EF (Ejection Fraction) (LVEF (Left Ventricular Ejection Fraction) \\<=40%) and elevated NT-proBNP (N-terminal of the prohormone brain natriuretic peptide)\n\n  * If EF \\>= 36% to \\<= 40%: NT-proBNP \\>= 2500 pg/ml or patients without AF (atrial fibrillation/atrial flutter) and NT-proBNP \\>= 5000 pg/ml for patients with AF\n  * If EF \\>= 31% to \\<= 35%: NT-proBNP \\>= 1000 pg/ml for patients without AF and NT-proBNP \\>=2000 pg/ml for patients with AF\n  * If EF\\<= 30%: NT-proBNP \\>= 600 pg/ml for patients without AF and NT-proBNP \\>=1200 pg/ml for patients with AF\n  * EF \u2264 40% and hospitalization for heart failure in the past 12 months: NTproBNP \u2265 600 pg/ml for patients without AF and NT-proBNP \\>= 1200 pg/ml for patients with AF\n* Appropriate dose of medical therapy for HF consistent with prevailing local and international CV (Cardiovascular) guidelines, stable for at least 1 week prior to Visit 1\n* Appropriate use of medical devices such as cardioverter defibrillator (ICD) or a cardiac resynchronization therapy (CRT) consistent with prevailing local or international CV guidelines\n* Signed and dated written ICF (Informed Consent Form)\n* Further inclusion criteria apply\n\nExclusion criteria:\n\n* Myocardial infarction, coronary artery bypass graft surgery, or other major cardiovascular surgery, stroke or TIA (Transient Ischaemic Attack) in past 90 days prior to Visit 1\n* Heart transplant recipient, or listed for heart transplant\n* Acute decompensated HF\n* Systolic blood pressure (SBP) \\>= 180 mmHg at Visit 2.\n* Symptomatic hypotension and/or a SBP \\< 100 mmHg\n* Indication of liver disease\n* Impaired renal function, defined as eGFR (Estimated Glomerular Filtration Rate) \\< 20 mL/min/1.73 m2 (CKD-EPI (Chronic Kidney Disease - Epidemiology Collaboration Equation)) or requiring dialysis\n* History of ketoacidosis\n* Current use or prior use of a SGLT (Sodium-glucose co-transporter)-2 inhibitor or combined SGLT-1 and 2 inhibitor\n* Currently enrolled in another investigational device or drug study\n* Known allergy or hypersensitivity to empagliflozin or other SGLT-2 inhibitors\n* Women who are pregnant, nursing, or who plan to become pregnant while in the trial\n* Further exclusion criteria apply", "healthyVolunteers": false, "sex": "ALL", "minimumAge": "18 Years", "stdAges": ["ADULT", "OLDER_ADULT"]}, "contactsLocationsModule": {"overallOfficials": [{"name": "Boehringer Ingelheim", "affiliation": "Boehringer Ingelheim", "role": "STUDY_CHAIR"}], "locations": [{"facility": "La Mesa Cardiac Center", "city": "La Mesa", "state": "California", "zip": "91942", "country": "United States", "geoPoint": {"lat": 32.76783, "lon": -117.02308}}, {"facility": "Long Beach Center for Clinical Research", "city": "Long Beach", "state": "California", "zip": "90807", "country": "United States", "geoPoint": {"lat": 33.76696, "lon": -118.18923}}, {"facility": "VA Greater Los Angeles Healthcare System", "city": "Los Angeles", "state": "California", "zip": "90073", "country": "United States", "geoPoint": {"lat": 34.05223, "lon": -118.24368}}, {"facility": "Merced Vein and Vascular Center", "city": "Merced", "state": "California", "zip": "95340", "country": "United States", "geoPoint": {"lat": 37.30216, "lon": -120.48297}}, {"facility": "University of California Irvine", "city": "Orange", "state": "California", "zip": "92865", "country": "United States", "geoPoint": {"lat": 33.78779, "lon": -117.85311}}, {"facility": "Covigilant Research, LLC", "city": "Riverside", "state": "California", "zip": "92506", "country": "United States", "geoPoint": {"lat": 33.95335, "lon": -117.39616}}, {"facility": "University of California", "city": "Torrance", "state": "California", "zip": "90502", "country": "United States", "geoPoint": {"lat": 33.83585, "lon": -118.34063}}, {"facility": "Orange County Research Center", "city": "Tustin", "state": "California", "zip": "92780", "country": "United States", "geoPoint": {"lat": 33.74585, "lon": -117.82617}}, {"facility": "Blue Coast Cardiology", "city": "Vista", "state": "California", "zip": "92083", "country": "United States", "geoPoint": {"lat": 33.20004, "lon": -117.24254}}, {"facility": "South Denver Cardiology Associates, PC", "city": "Littleton", "state": "Colorado", "zip": "80120", "country": "United States", "geoPoint": {"lat": 39.61332, "lon": -105.01665}}, {"facility": "Integrated Heart Care", "city": "Boca Raton", "state": "Florida", "zip": "33434", "country": "United States", "geoPoint": {"lat": 26.3669, "lon": -80.13033}}, {"facility": "Morton Plant Mease Health Care", "city": "Clearwater", "state": "Florida", "zip": "33756", "country": "United States", "geoPoint": {"lat": 27.96585, "lon": -82.8001}}, {"facility": "Nature Coast Clinical Research", "city": "Crystal River", "state": "Florida", "zip": "34429", "country": "United States", "geoPoint": {"lat": 28.90248, "lon": -82.5926}}, {"facility": "Avail Clinical Research, LLC", "city": "DeLand", "state": "Florida", "zip": "32720", "country": "United States", "geoPoint": {"lat": 29.02832, "lon": -81.30312}}, {"facility": "Holy Cross Hospital", "city": "Fort Lauderdale", "state": "Florida", "zip": "33308", "country": "United States", "geoPoint": {"lat": 26.12231, "lon": -80.14338}}, {"facility": "Integrative Research Associates", "city": "Fort Lauderdale", "state": "Florida", "zip": "33312", "country": "United States", "geoPoint": {"lat": 26.12231, "lon": -80.14338}}, {"facility": "Nature Coast Clinical Research", "city": "Inverness", "state": "Florida", "zip": "34452", "country": "United States", "geoPoint": {"lat": 28.83582, "lon": -82.33037}}, {"facility": "East Coast Institute for Research, LLC", "city": "Jacksonville", "state": "Florida", "zip": "32216", "country": "United States", "geoPoint": {"lat": 30.33218, "lon": -81.65565}}, {"facility": "Jacksonville Center for Clinical Research", "city": "Jacksonville", "state": "Florida", "zip": "32216", "country": "United States", "geoPoint": {"lat": 30.33218, "lon": -81.65565}}, {"facility": "Cardiovascular Research Center of South Florida", "city": "Miami", "state": "Florida", "zip": "33173", "country": "United States", "geoPoint": {"lat": 25.77427, "lon": -80.19366}}, {"facility": "Peninsula Research, Inc.", "city": "Ormond Beach", "state": "Florida", "zip": "32174", "country": "United States", "geoPoint": {"lat": 29.28581, "lon": -81.05589}}, {"facility": "Cardiology Consultants, Inc", "city": "Pensacola", "state": "Florida", "zip": "32501", "country": "United States", "geoPoint": {"lat": 30.42131, "lon": -87.21691}}, {"facility": "Sarasota Memorial Hospital", "city": "Sarasota", "state": "Florida", "zip": "34239", "country": "United States", "geoPoint": {"lat": 27.33643, "lon": -82.53065}}, {"facility": "Grady Clinical Research Center", "city": "Atlanta", "state": "Georgia", "zip": "30303", "country": "United States", "geoPoint": {"lat": 33.749, "lon": -84.38798}}, {"facility": "Augusta University", "city": "Augusta", "state": "Georgia", "zip": "30912", "country": "United States", "geoPoint": {"lat": 33.47097, "lon": -81.97484}}, {"facility": "Columbus Regional Research Institute", "city": "Columbus", "state": "Georgia", "zip": "31904", "country": "United States", "geoPoint": {"lat": 32.46098, "lon": -84.98771}}, {"facility": "Cardiovascular Group PC", "city": "Lawrenceville", "state": "Georgia", "zip": "30046", "country": "United States", "geoPoint": {"lat": 33.95621, "lon": -83.98796}}, {"facility": "Meridian Clinical Research, LLC", "city": "Savannah", "state": "Georgia", "zip": "31406", "country": "United States", "geoPoint": {"lat": 32.08354, "lon": -81.09983}}, {"facility": "Northwest Heart Clinical Research, LLC", "city": "Arlington Heights", "state": "Illinois", "zip": "60005", "country": "United States", "geoPoint": {"lat": 42.08836, "lon": -87.98063}}, {"facility": "University of Chicago", "city": "Chicago", "state": "Illinois", "zip": "60637", "country": "United States", "geoPoint": {"lat": 41.85003, "lon": -87.65005}}, {"facility": "Captain James A. Lovell Federal Health Care Center", "city": "North Chicago", "state": "Illinois", "zip": "60064", "country": "United States", "geoPoint": {"lat": 42.32558, "lon": -87.84118}}, {"facility": "Rockford Cardiovascular Associates", "city": "Rockford", "state": "Illinois", "zip": "61107", "country": "United States", "geoPoint": {"lat": 42.27113, "lon": -89.094}}, {"facility": "Midwest Cardiovascular Research and Education Foundation", "city": "Elkhart", "state": "Indiana", "zip": "46514", "country": "United States", "geoPoint": {"lat": 41.68199, "lon": -85.97667}}, {"facility": "St. Francis Medical Group-Indiana Heart Physicians, Inc", "city": "Indianapolis", "state": "Indiana", "zip": "46237", "country": "United States", "geoPoint": {"lat": 39.76838, "lon": -86.15804}}, {"facility": "Reid Hospital", "city": "Richmond", "state": "Indiana", "zip": "47374", "country": "United States", "geoPoint": {"lat": 39.82894, "lon": -84.89024}}, {"facility": "Beacon Medical Group Clinical Research", "city": "South Bend", "state": "Indiana", "zip": "46601", "country": "United States", "geoPoint": {"lat": 41.68338, "lon": -86.25001}}, {"facility": "Research Integrity, LLC", "city": "Owensboro", "state": "Kentucky", "zip": "42303", "country": "United States", "geoPoint": {"lat": 37.77422, "lon": -87.11333}}, {"facility": "Cambridge Medical Trials", "city": "Alexandria", "state": "Louisiana", "zip": "71301", "country": "United States", "geoPoint": {"lat": 31.31129, "lon": -92.44514}}, {"facility": "Louisiana Heart Center", "city": "Covington", "state": "Louisiana", "zip": "70433", "country": "United States", "geoPoint": {"lat": 30.47549, "lon": -90.10042}}, {"facility": "Clinical Trials of America, LLC", "city": "Monroe", "state": "Louisiana", "zip": "71201", "country": "United States", "geoPoint": {"lat": 32.50931, "lon": -92.1193}}, {"facility": "Tulane University Hospital and Clinic", "city": "New Orleans", "state": "Louisiana", "zip": "70112", "country": "United States", "geoPoint": {"lat": 29.95465, "lon": -90.07507}}, {"facility": "Anne Arundel Medical Center", "city": "Annapolis", "state": "Maryland", "zip": "21401", "country": "United States", "geoPoint": {"lat": 38.97845, "lon": -76.49218}}, {"facility": "Johns Hopkins University Hospital School of Medicine", "city": "Baltimore", "state": "Maryland", "zip": "21205", "country": "United States", "geoPoint": {"lat": 39.29038, "lon": -76.61219}}, {"facility": "MedStar Health Research Institute", "city": "Baltimore", "state": "Maryland", "zip": "21237", "country": "United States", "geoPoint": {"lat": 39.29038, "lon": -76.61219}}, {"facility": "Metropolitan Cardiovascular Consultants", "city": "Beltsville", "state": "Maryland", "zip": "20705", "country": "United States", "geoPoint": {"lat": 39.03483, "lon": -76.90747}}, {"facility": "Spectrum Clinical Research", "city": "Towson", "state": "Maryland", "zip": "21204", "country": "United States", "geoPoint": {"lat": 39.4015, "lon": -76.60191}}, {"facility": "Tufts Medical Center", "city": "Boston", "state": "Massachusetts", "zip": "02111", "country": "United States", "geoPoint": {"lat": 42.35843, "lon": -71.05977}}, {"facility": "East Mountain Medical Associates, PC", "city": "Great Barrington", "state": "Massachusetts", "zip": "01230", "country": "United States", "geoPoint": {"lat": 42.19592, "lon": -73.36206}}, {"facility": "Alpena General Hospital", "city": "Alpena", "state": "Michigan", "zip": "49707", "country": "United States", "geoPoint": {"lat": 45.06168, "lon": -83.43275}}, {"facility": "Regions Hospital", "city": "Saint Paul", "state": "Minnesota", "zip": "55101", "country": "United States", "geoPoint": {"lat": 44.94441, "lon": -93.09327}}, {"facility": "Saint Louis University", "city": "Saint Louis", "state": "Missouri", "zip": "63110", "country": "United States", "geoPoint": {"lat": 38.62727, "lon": -90.19789}}, {"facility": "SLHV", "city": "Saint Louis", "state": "Missouri", "zip": "63136", "country": "United States", "geoPoint": {"lat": 38.62727, "lon": -90.19789}}, {"facility": "Palm Research Center", "city": "Las Vegas", "state": "Nevada", "zip": "89148", "country": "United States", "geoPoint": {"lat": 36.17497, "lon": -115.13722}}, {"facility": "Advanced Heart Care, LLC", "city": "Bridgewater", "state": "New Jersey", "zip": "08807", "country": "United States", "geoPoint": {"lat": 40.60079, "lon": -74.64815}}, {"facility": "Cardiac Care and Vascular Medicine, PLLC", "city": "Bronx", "state": "New York", "zip": "10469", "country": "United States", "geoPoint": {"lat": 40.84985, "lon": -73.86641}}, {"facility": "Trinity Medical WNY, PC", "city": "Cheektowaga", "state": "New York", "zip": "14227", "country": "United States", "geoPoint": {"lat": 42.90339, "lon": -78.75475}}, {"facility": "Northwell Health", "city": "Great Neck", "state": "New York", "zip": "11021", "country": "United States", "geoPoint": {"lat": 40.80066, "lon": -73.72846}}, {"facility": "Mount Sinai School of Medicine", "city": "Lake Success", "state": "New York", "zip": "11041", "country": "United States", "geoPoint": {"lat": 40.77066, "lon": -73.71763}}, {"facility": "St. Luke's Roosevelt Hospital", "city": "New York", "state": "New York", "zip": "10025", "country": "United States", "geoPoint": {"lat": 40.71427, "lon": -74.00597}}, {"facility": "Harlem Cardiology", "city": "New York", "state": "New York", "zip": "10035", "country": "United States", "geoPoint": {"lat": 40.71427, "lon": -74.00597}}, {"facility": "Stony Brook University Medical Center", "city": "Stony Brook", "state": "New York", "zip": "11794", "country": "United States", "geoPoint": {"lat": 40.92565, "lon": -73.14094}}, {"facility": "Asheville Cardiology Associates", "city": "Asheville", "state": "North Carolina", "zip": "28803", "country": "United States", "geoPoint": {"lat": 35.60095, "lon": -82.55402}}, {"facility": "Kernodle Clinic West", "city": "Burlington", "state": "North Carolina", "zip": "27215", "country": "United States", "geoPoint": {"lat": 36.09569, "lon": -79.4378}}, {"facility": "The University of North Carolina at Chapel Hill", "city": "Chapel Hill", "state": "North Carolina", "zip": "27599-5021", "country": "United States", "geoPoint": {"lat": 35.9132, "lon": -79.05584}}, {"facility": "Novant Health Heart and Vascular Institute", "city": "Charlotte", "state": "North Carolina", "zip": "28204", "country": "United States", "geoPoint": {"lat": 35.22709, "lon": -80.84313}}, {"facility": "Duke University Medical Center", "city": "Durham", "state": "North Carolina", "zip": "27609", "country": "United States", "geoPoint": {"lat": 35.99403, "lon": -78.89862}}, {"facility": "Clinical Research of Gastonia", "city": "Gastonia", "state": "North Carolina", "zip": "28054", "country": "United States", "geoPoint": {"lat": 35.26208, "lon": -81.1873}}, {"facility": "Clinical Trials of America, Inc", "city": "Lenoir", "state": "North Carolina", "zip": "28645", "country": "United States", "geoPoint": {"lat": 35.91402, "lon": -81.53898}}, {"facility": "Rama Research LLC", "city": "Marion", "state": "Ohio", "zip": "43302", "country": "United States", "geoPoint": {"lat": 40.58867, "lon": -83.12852}}, {"facility": "University of Toledo", "city": "Toledo", "state": "Ohio", "zip": "43614", "country": "United States", "geoPoint": {"lat": 41.66394, "lon": -83.55521}}, {"facility": "South Oklahoma Heart Research Group", "city": "Oklahoma City", "state": "Oklahoma", "zip": "73135", "country": "United States", "geoPoint": {"lat": 35.46756, "lon": -97.51643}}, {"facility": "Doylestown Health Cardiology", "city": "Doylestown", "state": "Pennsylvania", "zip": "18901", "country": "United States", "geoPoint": {"lat": 40.31011, "lon": -75.12989}}, {"facility": "York Hospital, WellSpan Health", "city": "York", "state": "Pennsylvania", "zip": "17403", "country": "United States", "geoPoint": {"lat": 39.9626, "lon": -76.72774}}, {"facility": "AnMed Health Clinical Research", "city": "Anderson", "state": "South Carolina", "zip": "29621", "country": "United States", "geoPoint": {"lat": 34.50344, "lon": -82.65013}}, {"facility": "Ralph H. Johnson VA Medical Center", "city": "Charleston", "state": "South Carolina", "zip": "29401", "country": "United States", "geoPoint": {"lat": 32.77657, "lon": -79.93092}}, {"facility": "Palmetto Health", "city": "Columbia", "state": "South Carolina", "zip": "29203", "country": "United States", "geoPoint": {"lat": 34.00071, "lon": -81.03481}}, {"facility": "William Jennings Bryan Dorn VA Medical Center", "city": "Columbia", "state": "South Carolina", "zip": "29209", "country": "United States", "geoPoint": {"lat": 34.00071, "lon": -81.03481}}, {"facility": "Clinical Research of Rock Hill", "city": "Rock Hill", "state": "South Carolina", "zip": "29732", "country": "United States", "geoPoint": {"lat": 34.92487, "lon": -81.02508}}, {"facility": "Palmetto Research Center, LLC", "city": "Spartanburg", "state": "South Carolina", "zip": "29302", "country": "United States", "geoPoint": {"lat": 34.94957, "lon": -81.93205}}, {"facility": "Methodist University Hospital", "city": "Memphis", "state": "Tennessee", "zip": "38104", "country": "United States", "geoPoint": {"lat": 35.14953, "lon": -90.04898}}, {"facility": "Baylor Heart and Vascular Hospital", "city": "Dallas", "state": "Texas", "zip": "75226", "country": "United States", "geoPoint": {"lat": 32.78306, "lon": -96.80667}}, {"facility": "Soltero Cardiovascular Research Center", "city": "Dallas", "state": "Texas", "zip": "75226", "country": "United States", "geoPoint": {"lat": 32.78306, "lon": -96.80667}}, {"facility": "University of Texas Southwestern Medical Center", "city": "Dallas", "state": "Texas", "zip": "75390-8837", "country": "United States", "geoPoint": {"lat": 32.78306, "lon": -96.80667}}, {"facility": "University of North Texas Health Science Center", "city": "Fort Worth", "state": "Texas", "zip": "76107", "country": "United States", "geoPoint": {"lat": 32.72541, "lon": -97.32085}}, {"facility": "The Methodist Hospital", "city": "Houston", "state": "Texas", "zip": "77030", "country": "United States", "geoPoint": {"lat": 29.76328, "lon": -95.36327}}, {"facility": "The Heart Hospital", "city": "Plano", "state": "Texas", "zip": "75093", "country": "United States", "geoPoint": {"lat": 33.01984, "lon": -96.69889}}, {"facility": "Alpine Research Organization", "city": "Farmington", "state": "Utah", "zip": "84025", "country": "United States", "geoPoint": {"lat": 40.9805, "lon": -111.88744}}, {"facility": "Cardiac Health Management Network, P.C.", "city": "Chester", "state": "Virginia", "zip": "23836", "country": "United States", "geoPoint": {"lat": 37.35682, "lon": -77.44165}}, {"facility": "Hunter Holmes McGuire VA Medical Center", "city": "Richmond", "state": "Virginia", "zip": "23249", "country": "United States", "geoPoint": {"lat": 37.55376, "lon": -77.46026}}, {"facility": "Roanoke Heart Institute PLC", "city": "Roanoke", "state": "Virginia", "zip": "24014", "country": "United States", "geoPoint": {"lat": 37.27097, "lon": -79.94143}}, {"facility": "Salem VA Medical Center", "city": "Salem", "state": "Virginia", "zip": "24153", "country": "United States", "geoPoint": {"lat": 37.29347, "lon": -80.05476}}, {"facility": "Marshfield Clinic", "city": "Marshfield", "state": "Wisconsin", "zip": "54449", "country": "United States", "geoPoint": {"lat": 44.66885, "lon": -90.1718}}, {"facility": "Hospital Interzonal General de Agudos Dr Jose Penna", "city": "Bahia Blanca", "zip": "B8001DDU", "country": "Argentina", "geoPoint": {"lat": -38.71959, "lon": -62.27243}}, {"facility": "Hospital Italiano Regional del Sur, Bahia Blanca", "city": "Bahia Blanca", "zip": "B8001HXM", "country": "Argentina", "geoPoint": {"lat": -38.71959, "lon": -62.27243}}, {"facility": "CIPREC", "city": "Caba", "zip": "C1119ACN", "country": "Argentina", "geoPoint": {"lat": -34.61315, "lon": -58.37723}}, {"facility": "Hospital Italiano de Buenos Aires", "city": "Caba", "zip": "C1199ABB", "country": "Argentina", "geoPoint": {"lat": -34.61315, "lon": -58.37723}}, {"facility": "Consultorios Asociados de Endocrinolog\u00eda e Invest Cl\u00ednica", "city": "Ciudad Autonoma Buenos Aires", "zip": "C1425AGC", "country": "Argentina", "geoPoint": {"lat": -34.61315, "lon": -58.37723}}, {"facility": "Instituto Cardiovascular de Buenos Aires", "city": "Ciudad Autonoma Buenos Aires", "zip": "C1428ART", "country": "Argentina", "geoPoint": {"lat": -34.61315, "lon": -58.37723}}, {"facility": "CCBR - Buenos Aires - AR", "city": "Ciudad Autonoma Buenos Aires", "zip": "C1430CKE", "country": "Argentina", "geoPoint": {"lat": -34.61315, "lon": -58.37723}}, {"facility": "Centro M\u00e9dico Viamonte", "city": "Ciudad Autonoma de Bs As", "zip": "C1120AAC", "country": "Argentina", "geoPoint": {"lat": -34.61315, "lon": -58.37723}}, {"facility": "Sanatorio G\u00fcemes", "city": "Ciudad Aut\u00f3noma de Bs As", "zip": "C1180AAX", "country": "Argentina", "geoPoint": {"lat": -34.61315, "lon": -58.37723}}, {"facility": "Instituto Medico Elsa Perez SRL (IMEP)", "city": "Ciudadela", "zip": "1702", "country": "Argentina", "geoPoint": {"lat": -34.63983, "lon": -58.54246}}, {"facility": "Cl\u00ednica Colombo", "city": "Cordoba", "zip": "X5002AOQ", "country": "Argentina", "geoPoint": {"lat": -31.4135, "lon": -64.18105}}, {"facility": "Instituto M\u00e9dico DAMIC S.R.L.", "city": "Cordoba", "zip": "X5003DCE", "country": "Argentina", "geoPoint": {"lat": -31.4135, "lon": -64.18105}}, {"facility": "Clinica Coronel Suarez SA", "city": "Coronel Suarez", "zip": "B7540DOL", "country": "Argentina", "geoPoint": {"lat": -37.45467, "lon": -61.93343}}, {"facility": "Instituto de Cardiolog\u00eda de Corrientes", "city": "Corrientes", "zip": "W3400AMZ", "country": "Argentina", "geoPoint": {"lat": -27.4806, "lon": -58.8341}}, {"facility": "Sanatorio Mayo Privado SA", "city": "C\u00f3rdoba", "zip": "5000", "country": "Argentina", "geoPoint": {"lat": -31.4135, "lon": -64.18105}}, {"facility": "Centro de Investigaciones Clinicas Instituto del Corazon", "city": "C\u00f3rdoba", "zip": "X5000EVQ", "country": "Argentina", "geoPoint": {"lat": -31.4135, "lon": -64.18105}}, {"facility": "Sanatorio Allende S.A.", "city": "C\u00f3rdoba", "zip": "X5000JHQ", "country": "Argentina", "geoPoint": {"lat": -31.4135, "lon": -64.18105}}, {"facility": "Hospital Privado", "city": "C\u00f3rdoba", "zip": "X5016KEH", "country": "Argentina", "geoPoint": {"lat": -31.4135, "lon": -64.18105}}, {"facility": "Hospital Italiano de La Plata", "city": "La Plata", "zip": "B1900AXI", "country": "Argentina", "geoPoint": {"lat": -34.92145, "lon": -57.95453}}, {"facility": "Centro de Investigaciones M\u00e9dicas", "city": "Mar del Plata", "zip": "B7600FYK", "country": "Argentina", "geoPoint": {"lat": -38.00228, "lon": -57.55754}}, {"facility": "Hospital Privado de Comunidad", "city": "Mar del Plata", "zip": "B7602CBM", "country": "Argentina", "geoPoint": {"lat": -38.00228, "lon": -57.55754}}, {"facility": "Cl\u00ednica Olivos", "city": "Olivos", "zip": "1602", "country": "Argentina", "geoPoint": {"lat": -34.50747, "lon": -58.48703}}, {"facility": "CER Instituto M\u00e9dico", "city": "Quilmes", "zip": "B1878DVB", "country": "Argentina", "geoPoint": {"lat": -34.72904, "lon": -58.26374}}, {"facility": "Instituto de Investigaciones Cl\u00ednicas de Quilmes", "city": "Quilmes", "zip": "B1878GEG", "country": "Argentina", "geoPoint": {"lat": -34.72904, "lon": -58.26374}}, {"facility": "Instituto de Investigaciones Clinicas de Rosario", "city": "Rosario", "zip": "2000", "country": "Argentina", "geoPoint": {"lat": -32.94682, "lon": -60.63932}}, {"facility": "Instituto Medico Fundaci\u00f3n Grupo Colaborativo Rosario", "city": "Rosario", "zip": "2000", "country": "Argentina", "geoPoint": {"lat": -32.94682, "lon": -60.63932}}, {"facility": "Sanatorio Brit\u00e1nico", "city": "Rosario", "zip": "2000", "country": "Argentina", "geoPoint": {"lat": -32.94682, "lon": -60.63932}}, {"facility": "Sanatorio Plaza", "city": "Rosario", "zip": "2000", "country": "Argentina", "geoPoint": {"lat": -32.94682, "lon": -60.63932}}, {"facility": "Sanatorio Parque", "city": "Rosario", "zip": "S2000DSV", "country": "Argentina", "geoPoint": {"lat": -32.94682, "lon": -60.63932}}, {"facility": "Instituto CAICI", "city": "Rosario", "zip": "S2000PBJ", "country": "Argentina", "geoPoint": {"lat": -32.94682, "lon": -60.63932}}, {"facility": "CORDIS S.A., Salta", "city": "Salta", "zip": "A4400ANW", "country": "Argentina", "geoPoint": {"lat": -24.7859, "lon": -65.41166}}, {"facility": "Centro Cardiovascular Salta", "city": "Salta", "zip": "A4406BFP", "country": "Argentina", "geoPoint": {"lat": -24.7859, "lon": -65.41166}}, {"facility": "Corporacion Medica de Gral. San Martin S.A.", "city": "San Martin", "zip": "B1650CSQ", "country": "Argentina", "geoPoint": {"lat": -33.08103, "lon": -68.46814}}, {"facility": "Investigaciones Clinicas Tucuman", "city": "San Miguel de Tucum\u00e1n", "zip": "T4000ICL", "country": "Argentina", "geoPoint": {"lat": -26.82414, "lon": -65.2226}}, {"facility": "CCBR Tucuman", "city": "San Miguel de Tucum\u00e1n", "zip": "T4000", "country": "Argentina", "geoPoint": {"lat": -26.82414, "lon": -65.2226}}, {"facility": "Centro Medico Luquez", "city": "San Vicente", "zip": "X5006CBI", "country": "Argentina", "geoPoint": {"lat": -26.61667, "lon": -54.13333}}, {"facility": "Centro de Investigaciones Cl\u00ednicas del Litoral", "city": "Santa Fe", "zip": "S3000FWO", "country": "Argentina", "geoPoint": {"lat": -31.63333, "lon": -60.7}}, {"facility": "Hospital \"Dr. Jos\u00e9 Maria Cullen \"", "city": "Santa F\u00e9", "zip": "S3000EOZ", "country": "Argentina", "geoPoint": {"lat": -31.63333, "lon": -60.7}}, {"facility": "Instituto de Cardiolog\u00eda", "city": "Tucum\u00e1n", "zip": "T4000JCU", "country": "Argentina", "geoPoint": {"lat": -26.82414, "lon": -65.2226}}, {"facility": "CEMEDIC - Centro de Especialidades Medicas", "city": "Villa Luro", "zip": "C1440CFD", "country": "Argentina", "geoPoint": {"lat": -34.63814, "lon": -58.50273}}, {"facility": "John Hunter Hospital", "city": "New Lambton Heights", "state": "New South Wales", "zip": "2305", "country": "Australia", "geoPoint": {"lat": -32.92466, "lon": 151.69364}}, {"facility": "CORE Research Group", "city": "Milton", "state": "Queensland", "zip": "4064", "country": "Australia", "geoPoint": {"lat": -35.31644, "lon": 150.4361}}, {"facility": "Mater Hospital Brisbane", "city": "South Brisbane", "state": "Queensland", "zip": "4101", "country": "Australia", "geoPoint": {"lat": -27.48034, "lon": 153.02049}}, {"facility": "SA-Heart Ashford Specialist Centre", "city": "Ashford", "state": "South Australia", "zip": "5035", "country": "Australia", "geoPoint": {"lat": -29.32191, "lon": 151.09308}}, {"facility": "Heart and Vascular Research", "city": "Fullarton", "state": "South Australia", "zip": "5063", "country": "Australia", "geoPoint": {"lat": -34.951, "lon": 138.629}}, {"facility": "The Northern Hospital", "city": "Epping", "state": "Victoria", "zip": "3076", "country": "Australia", "geoPoint": {"lat": -37.65, "lon": 145.03333}}, {"facility": "St Vincent's Hospital Melbourne", "city": "Fitzroy", "state": "Victoria", "zip": "3065", "country": "Australia", "geoPoint": {"lat": -37.79839, "lon": 144.97833}}, {"facility": "University Hospital Geelong", "city": "Geelong", "state": "Victoria", "zip": "3220", "country": "Australia", "geoPoint": {"lat": -38.14711, "lon": 144.36069}}, {"facility": "Royal Melbourne Hospital", "city": "Parkville", "state": "Victoria", "zip": "3050", "country": "Australia", "geoPoint": {"lat": -37.78333, "lon": 144.95}}, {"facility": "AZ Sint-Jan Brugge", "city": "Brugge", "zip": "3000", "country": "Belgium", "geoPoint": {"lat": 51.20892, "lon": 3.22424}}, {"facility": "C.H.U. de Charleroi", "city": "Charleroi", "zip": "6000", "country": "Belgium", "geoPoint": {"lat": 50.41136, "lon": 4.44448}}, {"facility": "AZ Sint-Blasius", "city": "Dendermonde", "zip": "9200", "country": "Belgium", "geoPoint": {"lat": 51.02869, "lon": 4.10106}}, {"facility": "Ziekenhuis Oost-Limburg - Campus Sint-Jan", "city": "Genk", "zip": "3600", "country": "Belgium", "geoPoint": {"lat": 50.965, "lon": 5.50082}}, {"facility": "AZ Sint-Lucas - Campus Sint Lucas", "city": "Gent", "zip": "9000", "country": "Belgium", "geoPoint": {"lat": 51.05, "lon": 3.71667}}, {"facility": "Grand H\u00f4pital de Charleroi", "city": "Gilly", "zip": "6060", "country": "Belgium", "geoPoint": {"lat": 50.42449, "lon": 4.4789}}, {"facility": "Jessa Ziekenhuis - Campus Virga Jesse", "city": "Hasselt", "zip": "3500", "country": "Belgium", "geoPoint": {"lat": 50.93106, "lon": 5.33781}}, {"facility": "La Louvi\u00e8re - UNIV CHU Tivoli", "city": "La Louvi\u00e8re", "zip": "7100", "country": "Belgium", "geoPoint": {"lat": 50.48657, "lon": 4.18785}}, {"facility": "UZ Leuven", "city": "Leuven", "zip": "3000", "country": "Belgium", "geoPoint": {"lat": 50.87959, "lon": 4.70093}}, {"facility": "AZ Sint-Maarten", "city": "Mechelen", "zip": "2800", "country": "Belgium", "geoPoint": {"lat": 51.02574, "lon": 4.47762}}, {"facility": "Hospital Felicio Rocho", "city": "Belo Horizonte", "zip": "30110-060", "country": "Brazil", "geoPoint": {"lat": -19.92083, "lon": -43.93778}}, {"facility": "Hospital Vera Cruz", "city": "Belo Horizonte", "zip": "30140-062", "country": "Brazil", "geoPoint": {"lat": -19.92083, "lon": -43.93778}}, {"facility": "Cardresearch Cardiologia Assistencial e de Pesquisas Ltda", "city": "Belo Horizonte", "zip": "30150-240", "country": "Brazil", "geoPoint": {"lat": -19.92083, "lon": -43.93778}}, {"facility": "CCBR - Bras\u00edlia", "city": "Bras\u00edlia", "zip": "70200-730", "country": "Brazil", "geoPoint": {"lat": -15.77972, "lon": -47.92972}}, {"facility": "ICDF - Instituto de Cardiologia do Distrito Federal", "city": "Bras\u00edlia", "zip": "70673-900", "country": "Brazil", "geoPoint": {"lat": -15.77972, "lon": -47.92972}}, {"facility": "CECAP - Centro de Cardiologia Cl\u00ednica", "city": "Bras\u00edlia", "zip": "70710-100", "country": "Brazil", "geoPoint": {"lat": -15.77972, "lon": -47.92972}}, {"facility": "Hospital Angelina Caron", "city": "Campina Grande do Sul", "zip": "83430-000", "country": "Brazil", "geoPoint": {"lat": -25.30556, "lon": -49.05528}}, {"facility": "Centro Especializado em Cardiol Loema Instituto de Pesq Clin", "city": "Campinas", "zip": "13010-001", "country": "Brazil", "geoPoint": {"lat": -22.90556, "lon": -47.06083}}, {"facility": "IPECC - Instituto de Pesquisa Cl\u00ednica de Campinas", "city": "Campinas", "zip": "13060-080", "country": "Brazil", "geoPoint": {"lat": -22.90556, "lon": -47.06083}}, {"facility": "CAEP - Centro Avan\u00e7ado de Estudos e Pesquisas Ltda.,Campinas", "city": "Campinas", "zip": "13087-567", "country": "Brazil", "geoPoint": {"lat": -22.90556, "lon": -47.06083}}, {"facility": "Hospital Universit\u00e1rio", "city": "Canoas", "zip": "92425-900", "country": "Brazil", "geoPoint": {"lat": -29.91778, "lon": -51.18361}}, {"facility": "IPCEM - Instituto de Pesquisa Cl\u00ednica para Estudos Multic\u00eantricos - Universidade de Caxias do Sul", "city": "Caxias do Sul", "zip": "95070-560", "country": "Brazil", "geoPoint": {"lat": -29.16806, "lon": -51.17944}}, {"facility": "Irmandade da Santa Casa de Miseric\u00f3rdia de Curitiba", "city": "Curitiba", "zip": "80230-130", "country": "Brazil", "geoPoint": {"lat": -25.42778, "lon": -49.27306}}, {"facility": "Hospital de Messejana Dr. Carlos Alberto Studart Gomes", "city": "Fortaleza", "zip": "60846-190", "country": "Brazil", "geoPoint": {"lat": -3.71722, "lon": -38.54306}}, {"facility": "Barroso e Sebba Ltda", "city": "Goiania", "zip": "74223-130", "country": "Brazil", "geoPoint": {"lat": -16.67861, "lon": -49.25389}}, {"facility": "HC-UFG - Hospital das Cl\u00ednicas da Universidade Federal de Goi\u00e1s", "city": "Goi\u00e2nia", "zip": "74605-020", "country": "Brazil", "geoPoint": {"lat": -16.67861, "lon": -49.25389}}, {"facility": "ICM - Instituto do Coracao de Marilia", "city": "Mar\u00edlia", "zip": "17515-000", "country": "Brazil", "geoPoint": {"lat": -22.21389, "lon": -49.94583}}, {"facility": "Hospital S\u00e3o Vicente de Paulo", "city": "Passo Fundo", "zip": "99010-080", "country": "Brazil", "geoPoint": {"lat": -28.26278, "lon": -52.40667}}, {"facility": "Santa Casa de Miseric\u00f3rdia de Porto Alegre", "city": "Porto Alegre", "zip": "90035-074", "country": "Brazil", "geoPoint": {"lat": -30.03306, "lon": -51.23}}, {"facility": "Centro de Pesquisas em Diabetes", "city": "Porto Alegre", "zip": "90035-170", "country": "Brazil", "geoPoint": {"lat": -30.03306, "lon": -51.23}}, {"facility": "Hospital de Cl\u00ednicas de Porto Alegre", "city": "Porto Alegre", "zip": "90035-903", "country": "Brazil", "geoPoint": {"lat": -30.03306, "lon": -51.23}}, {"facility": "Instituto de Cardiologia Rio Grande do Sul", "city": "Porto Alegre", "zip": "90620-001", "country": "Brazil", "geoPoint": {"lat": -30.03306, "lon": -51.23}}, {"facility": "Hospital Agamenon Magalhaes", "city": "Recife", "zip": "52051-380", "country": "Brazil", "geoPoint": {"lat": -8.05389, "lon": -34.88111}}, {"facility": "H.C.da Fac. de Medicina de Ribeirao Preto", "city": "Ribeir\u00e3o Preto", "zip": "14048-900", "country": "Brazil", "geoPoint": {"lat": -21.1775, "lon": -47.81028}}, {"facility": "Hospital Universit\u00e1rio Pedro Ernesto UERJ", "city": "Rio De Janeiro - RJ", "zip": "CEP 20551", "country": "Brazil"}, {"facility": "CCBR - Rio de Janeiro - BR", "city": "Rio de Janeiro", "zip": "22271-100", "country": "Brazil", "geoPoint": {"lat": -22.90278, "lon": -43.2075}}, {"facility": "Pesquisare", "city": "Santo Andr\u00e9", "zip": "09080-110", "country": "Brazil", "geoPoint": {"lat": -23.66389, "lon": -46.53833}}, {"facility": "Praxis Pesquisa M\u00e9dica", "city": "Santo Andr\u00e9", "zip": "09090-790", "country": "Brazil", "geoPoint": {"lat": -23.66389, "lon": -46.53833}}, {"facility": "Fundacao Faculdade Regional de Medicina, Sao Jose", "city": "Sao Jose do Rio Preto", "zip": "15090-000", "country": "Brazil", "geoPoint": {"lat": -20.81972, "lon": -49.37944}}, {"facility": "Centro de Pesquisa Clinica - CPCLIN", "city": "Sao Paulo", "zip": "01244-030", "country": "Brazil", "geoPoint": {"lat": -23.5475, "lon": -46.63611}}, {"facility": "FGM - Cl\u00ednica Paulista de Doen\u00e7as Cardiovasculares", "city": "Sao Paulo", "zip": "01323-000", "country": "Brazil", "geoPoint": {"lat": -23.5475, "lon": -46.63611}}, {"facility": "CEPIC - Centro Paulista de Investigacao Clinica", "city": "Sao Paulo", "zip": "04266-010", "country": "Brazil", "geoPoint": {"lat": -23.5475, "lon": -46.63611}}, {"facility": "INCOR e Hospital das Cl\u00ednicas da Universidade de S\u00e3o Paulo", "city": "Sao Paulo", "zip": "05403-000", "country": "Brazil", "geoPoint": {"lat": -23.5475, "lon": -46.63611}}, {"facility": "CEMEC - Centro Multidisciplinar de Estudos Cl\u00ednicos", "city": "S\u00e3o Bernardo do Campo", "zip": "09780-000", "country": "Brazil", "geoPoint": {"lat": -23.69389, "lon": -46.565}}, {"facility": "CDEC BRASIL - Centro de Desenvolvimento em Estudos Cl\u00ednicos Brasil", "city": "S\u00e3o Paulo", "zip": "04020-060", "country": "Brazil", "geoPoint": {"lat": -23.5475, "lon": -46.63611}}, {"facility": "Dr. Consulta", "city": "S\u00e3o Paulo", "zip": "04208-002", "country": "Brazil", "geoPoint": {"lat": -23.5475, "lon": -46.63611}}, {"facility": "CEDOES - Diagn\u00f3stico e Pesquisa,Vit\u00f3ria", "city": "Vit\u00f3ria", "zip": "29055-450", "country": "Brazil", "geoPoint": {"lat": -20.31944, "lon": -40.33778}}, {"facility": "Santa Casa de Votuporanga", "city": "Votuporanga", "zip": "15500-003", "country": "Brazil", "geoPoint": {"lat": -20.42278, "lon": -49.97278}}, {"facility": "Royal Alexandra Hospital", "city": "Edmonton", "state": "Alberta", "zip": "T5H 3V9", "country": "Canada", "geoPoint": {"lat": 53.55014, "lon": -113.46871}}, {"facility": "Vancouver General Hospital", "city": "Vancouver", "state": "British Columbia", "zip": "V5Z 1M9", "country": "Canada", "geoPoint": {"lat": 49.24966, "lon": -123.11934}}, {"facility": "St. Paul's Hospital", "city": "Vancouver", "state": "British Columbia", "zip": "V6Z 1Y6", "country": "Canada", "geoPoint": {"lat": 49.24966, "lon": -123.11934}}, {"facility": "Victoria Heart Institute Foundation", "city": "Victoria", "state": "British Columbia", "zip": "V8R 4R2", "country": "Canada", "geoPoint": {"lat": 48.43294, "lon": -123.3693}}, {"facility": "St. Boniface General Hospital", "city": "Winnipeg", "state": "Manitoba", "zip": "R2H 2A6", "country": "Canada", "geoPoint": {"lat": 49.8844, "lon": -97.14704}}, {"facility": "G.A. Research Associates Ltd", "city": "Moncton", "state": "New Brunswick", "zip": "E1G 1A7", "country": "Canada", "geoPoint": {"lat": 46.09454, "lon": -64.7965}}, {"facility": "QEII Health Sciences Centre", "city": "Halifax", "state": "Nova Scotia", "zip": "B3H 2Y9", "country": "Canada", "geoPoint": {"lat": 44.64533, "lon": -63.57239}}, {"facility": "Brampton Cardio Pulmonary Clinic", "city": "Brampton", "state": "Ontario", "zip": "L6W 2X7", "country": "Canada", "geoPoint": {"lat": 43.68341, "lon": -79.76633}}, {"facility": "JBN Medical Diagnostic Services Inc.", "city": "Burlington", "state": "Ontario", "zip": "L7M 4Y1", "country": "Canada", "geoPoint": {"lat": 43.38621, "lon": -79.83713}}, {"facility": "Cambridge Cardiac Care Inc.", "city": "Cambridge", "state": "Ontario", "zip": "N1R 6V6", "country": "Canada", "geoPoint": {"lat": 43.3601, "lon": -80.31269}}, {"facility": "Curnew Medicine Professional Corporation", "city": "Hamilton", "state": "Ontario", "zip": "L8L 0A9", "country": "Canada", "geoPoint": {"lat": 43.25011, "lon": -79.84963}}, {"facility": "Hamilton General Hospital", "city": "Hamilton", "state": "Ontario", "zip": "L8L 2X2", "country": "Canada", "geoPoint": {"lat": 43.25011, "lon": -79.84963}}, {"facility": "Southlake Regional Health Centre", "city": "Newmarket", "state": "Ontario", "zip": "L3Y 2P6", "country": "Canada", "geoPoint": {"lat": 44.05011, "lon": -79.46631}}, {"facility": "M Heffernan Medicine Professional Corp.", "city": "Oakville", "state": "Ontario", "zip": "L6K 3W7", "country": "Canada", "geoPoint": {"lat": 43.45011, "lon": -79.68292}}, {"facility": "Kawartha Cardiology Clinical Trials", "city": "Peterborough", "state": "Ontario", "zip": "K9J 0B2", "country": "Canada", "geoPoint": {"lat": 44.30012, "lon": -78.31623}}, {"facility": "Heart Health Institute", "city": "Scarborough", "state": "Ontario", "zip": "M1B 4Z8", "country": "Canada", "geoPoint": {"lat": 43.77223, "lon": -79.25666}}, {"facility": "Scarborough Cardiology Research", "city": "Scarborough", "state": "Ontario", "zip": "M1E 5E9", "country": "Canada", "geoPoint": {"lat": 43.77223, "lon": -79.25666}}, {"facility": "Health Sciences North", "city": "Sudbury", "state": "Ontario", "zip": "P3E 5J1", "country": "Canada", "geoPoint": {"lat": 46.49, "lon": -80.99001}}, {"facility": "Canadian Phase Onward Inc.", "city": "Toronto", "state": "Ontario", "zip": "M3J 2C5", "country": "Canada", "geoPoint": {"lat": 43.70011, "lon": -79.4163}}, {"facility": "North York Diagnostic and Cardiac Centre", "city": "Toronto", "state": "Ontario", "zip": "M6B 1N6", "country": "Canada", "geoPoint": {"lat": 43.70011, "lon": -79.4163}}, {"facility": "Diabetes Heart Research Centre", "city": "Toronto", "state": "Ontario", "zip": "M6G 1M2", "country": "Canada", "geoPoint": {"lat": 43.70011, "lon": -79.4163}}, {"facility": "Mohan Babapulle Medicine Professional Medicine", "city": "Waterloo", "state": "Ontario", "zip": "N2T 0C1", "country": "Canada", "geoPoint": {"lat": 43.4668, "lon": -80.51639}}, {"facility": "Dr. Louis C.H. Yao", "city": "York", "state": "Ontario", "zip": "M9N 1W4", "country": "Canada"}, {"facility": "ViaCar Recherche Clinique Inc", "city": "Greenfield Park", "state": "Quebec", "zip": "J4V 2G8", "country": "Canada", "geoPoint": {"lat": 45.48649, "lon": -73.46223}}, {"facility": "Centre de D\u00e9pistage et Recherche Cardiovasculaire Rive-Sud", "city": "Longeuil", "state": "Quebec", "zip": "J4M 2X1", "country": "Canada"}, {"facility": "Clinique Sant\u00e9 Cardio MC", "city": "Montreal", "state": "Quebec", "zip": "H1T 3Y7", "country": "Canada", "geoPoint": {"lat": 45.50884, "lon": -73.58781}}, {"facility": "Montreal General Hospital - McGill University Health Centre", "city": "Montreal", "state": "Quebec", "zip": "H3G 1A4", "country": "Canada", "geoPoint": {"lat": 45.50884, "lon": -73.58781}}, {"facility": "McGill University Health Centre (MUHC)", "city": "Montreal", "state": "Quebec", "zip": "H4A 3J1", "country": "Canada", "geoPoint": {"lat": 45.50884, "lon": -73.58781}}, {"facility": "Centre de sante et de services sociaux de Beauce", "city": "Saint George-de-Beauce", "state": "Quebec", "zip": "G5Y 4T8", "country": "Canada"}, {"facility": "IUCPQ (Laval University)", "city": "Quebec", "zip": "G1V 4G5", "country": "Canada", "geoPoint": {"lat": 46.81228, "lon": -71.21454}}, {"facility": "Cardiovascular Institute and Fu Wai Hospital", "city": "Beijing", "zip": "100037", "country": "China", "geoPoint": {"lat": 39.9075, "lon": 116.39723}}, {"facility": "Beijing Friendship Hospital", "city": "Beijing", "zip": "100050", "country": "China", "geoPoint": {"lat": 39.9075, "lon": 116.39723}}, {"facility": "First Hospital of Jilin University", "city": "Changchun", "zip": "130021", "country": "China", "geoPoint": {"lat": 43.88, "lon": 125.32278}}, {"facility": "Hunan Provincial People's Hospital", "city": "Changsha", "zip": "410005", "country": "China", "geoPoint": {"lat": 28.19874, "lon": 112.97087}}, {"facility": "2nd Xiangya Hospital of Central South University", "city": "Changsha", "zip": "410011", "country": "China", "geoPoint": {"lat": 28.19874, "lon": 112.97087}}, {"facility": "The Third Hospital of Changsha", "city": "Changsha", "zip": "410015", "country": "China", "geoPoint": {"lat": 28.19874, "lon": 112.97087}}, {"facility": "Dongguan People's Hospital", "city": "Dongguan", "zip": "523059", "country": "China", "geoPoint": {"lat": 23.01797, "lon": 113.74866}}, {"facility": "The First Affiliated Hospital of Fujian Medical University", "city": "Fuzhou", "zip": "350005", "country": "China", "geoPoint": {"lat": 26.06139, "lon": 119.30611}}, {"facility": "The First Afiliated Hospital, Sun Yet-sen University", "city": "Guangzhou", "zip": "510080", "country": "China", "geoPoint": {"lat": 23.11667, "lon": 113.25}}, {"facility": "Guangzhou First Municipal People's Hospital", "city": "Guangzhou", "zip": "510180", "country": "China", "geoPoint": {"lat": 23.11667, "lon": 113.25}}, {"facility": "Haikou People's Hospital", "city": "Haikou", "zip": "570208", "country": "China", "geoPoint": {"lat": 20.04583, "lon": 110.34167}}, {"facility": "HaiNan Provincial People's Hospital", "city": "Haikou", "zip": "570311", "country": "China", "geoPoint": {"lat": 20.04583, "lon": 110.34167}}, {"facility": "The First Affiliated Hospital of Lanzhou University", "city": "Lanzhou", "zip": "730000", "country": "China", "geoPoint": {"lat": 36.05701, "lon": 103.83987}}, {"facility": "The Second Affiliated Hospital of Lanzhou Medical University", "city": "Lanzhou", "zip": "730030", "country": "China", "geoPoint": {"lat": 36.05701, "lon": 103.83987}}, {"facility": "The Affiliated Hospital of Southwest Medical University", "city": "Luzhou", "zip": "646099", "country": "China"}, {"facility": "Nanchang University Affiliated 3rd Hospital", "city": "Nanchang", "zip": "330008", "country": "China", "geoPoint": {"lat": 28.68396, "lon": 115.85306}}, {"facility": "First Hospital Affiliated with Nanjing Medical University", "city": "Nanjing", "zip": "210029", "country": "China", "geoPoint": {"lat": 32.06167, "lon": 118.77778}}, {"facility": "Huashan Hospital, Fudan University", "city": "Shanghai", "zip": "200040", "country": "China", "geoPoint": {"lat": 31.22222, "lon": 121.45806}}, {"facility": "General Hospital of Shenyang Military Region", "city": "Shenyang", "zip": "110015", "country": "China", "geoPoint": {"lat": 41.79222, "lon": 123.43278}}, {"facility": "Shengjing Hospital of China Medical University", "city": "Shenyang", "zip": "110072", "country": "China", "geoPoint": {"lat": 41.79222, "lon": 123.43278}}, {"facility": "Tianjin Union Medical Center Nankai University Affiliated Hospital", "city": "Tianjin", "zip": "300121", "country": "China", "geoPoint": {"lat": 39.14222, "lon": 117.17667}}, {"facility": "Tongji Hospital, Tongji University", "city": "Wuhan", "zip": "430030", "country": "China", "geoPoint": {"lat": 30.58333, "lon": 114.26667}}, {"facility": "Renmin Hospital of Wuhan University", "city": "Wuhan", "zip": "430060", "country": "China", "geoPoint": {"lat": 30.58333, "lon": 114.26667}}, {"facility": "First Affiliated Hospital of Xi'an JiaoTong University", "city": "Xi'an", "zip": "710061", "country": "China", "geoPoint": {"lat": 34.25833, "lon": 108.92861}}, {"facility": "Yanbian University Hospital", "city": "Yanji", "zip": "133000", "country": "China", "geoPoint": {"lat": 42.9075, "lon": 129.50778}}, {"facility": "the first people hospital of Yue Yang", "city": "Yueyang", "zip": "414000", "country": "China", "geoPoint": {"lat": 29.37455, "lon": 113.09481}}, {"facility": "Affiliated Hospital of Jiangsu University", "city": "Zhenjiang", "zip": "212013", "country": "China", "geoPoint": {"lat": 32.21086, "lon": 119.45508}}, {"facility": "Poliklinika Humanitas", "city": "Bilovec", "zip": "74301", "country": "Czechia", "geoPoint": {"lat": 49.75639, "lon": 18.01581}}, {"facility": "Medicus Services Ltd.", "city": "Brandys Nad", "zip": "250 01", "country": "Czechia"}, {"facility": "Internal and Cardiology Practice, MUDr. Karel Kamenik, Brno", "city": "Brno", "zip": "603 00", "country": "Czechia", "geoPoint": {"lat": 49.19522, "lon": 16.60796}}, {"facility": "MUDr. Alexandra Ludkova", "city": "Brno", "zip": "615 00", "country": "Czechia", "geoPoint": {"lat": 49.19522, "lon": 16.60796}}, {"facility": "Vojenska nemocnice Brno", "city": "Brno", "zip": "63600", "country": "Czechia", "geoPoint": {"lat": 49.19522, "lon": 16.60796}}, {"facility": "Nemocnice Milosrdnych bratri", "city": "Brno", "zip": "63900", "country": "Czechia", "geoPoint": {"lat": 49.19522, "lon": 16.60796}}, {"facility": "Edumed s.r.o", "city": "Broumov", "zip": "55001", "country": "Czechia", "geoPoint": {"lat": 50.58566, "lon": 16.33181}}, {"facility": "MUDr. Jan Hubac, s.r.o. Kardiologicka ambulance", "city": "Chrudim", "zip": "53702", "country": "Czechia", "geoPoint": {"lat": 49.95109, "lon": 15.79558}}, {"facility": "Nemocnice ve Frydku-Mistku, prispevkova organizace", "city": "Frydek-Mistek", "zip": "73818", "country": "Czechia", "geoPoint": {"lat": 49.68333, "lon": 18.35}}, {"facility": "MUDr. Ladislav Busak", "city": "Louny", "zip": "440 01", "country": "Czechia", "geoPoint": {"lat": 50.35699, "lon": 13.79667}}, {"facility": "Zdenek Vomacka", "city": "Olomouc", "zip": "779 00", "country": "Czechia", "geoPoint": {"lat": 49.59552, "lon": 17.25175}}, {"facility": "PV-Kardiologie s.r.o.", "city": "Pardubice", "zip": "53002", "country": "Czechia", "geoPoint": {"lat": 50.04075, "lon": 15.77659}}, {"facility": "University Hospital Motol", "city": "Prag 5", "zip": "15006", "country": "Czechia", "geoPoint": {"lat": 50.08804, "lon": 14.42076}}, {"facility": "General Faculty Hospital, Prague", "city": "Prague 2", "zip": "128 08", "country": "Czechia", "geoPoint": {"lat": 50.08804, "lon": 14.42076}}, {"facility": "Thomayer Hospital", "city": "Praha 4 - Krc", "zip": "140 59", "country": "Czechia", "geoPoint": {"lat": 50.08804, "lon": 14.42076}}, {"facility": "Kardio Vaclavik s.r.o.", "city": "Prerov", "zip": "75000", "country": "Czechia", "geoPoint": {"lat": 49.45511, "lon": 17.4509}}, {"facility": "Clinic of Cardiology, Pribram", "city": "Pribram", "zip": "261 01", "country": "Czechia", "geoPoint": {"lat": 49.68988, "lon": 14.01043}}, {"facility": "Hospital Trebic, p.o.", "city": "Trebic", "zip": "67401", "country": "Czechia", "geoPoint": {"lat": 49.21492, "lon": 15.88166}}, {"facility": "Masaryk Hospital, Usti nad Labem", "city": "Usti nad Labem", "zip": "40113", "country": "Czechia", "geoPoint": {"lat": 50.6607, "lon": 14.03227}}, {"facility": "Angiocor s.r.o", "city": "Zlin", "zip": "76001", "country": "Czechia", "geoPoint": {"lat": 49.22645, "lon": 17.67065}}, {"facility": "KIGE s.r.o", "city": "Znojmo", "zip": "66902", "country": "Czechia", "geoPoint": {"lat": 48.8555, "lon": 16.0488}}, {"facility": "HOP de Bayonne", "city": "Bayonne", "zip": "64100", "country": "France", "geoPoint": {"lat": 43.48333, "lon": -1.48333}}, {"facility": "HOP Jean Minjoz", "city": "Besan\u00e7on", "zip": "25030", "country": "France", "geoPoint": {"lat": 47.24878, "lon": 6.01815}}, {"facility": "HOP Louis Pradel", "city": "Bron", "zip": "69500", "country": "France", "geoPoint": {"lat": 45.73333, "lon": 4.91667}}, {"facility": "HOP C\u00f4te de Nacre", "city": "Caen", "zip": "14033", "country": "France", "geoPoint": {"lat": 49.18585, "lon": -0.35912}}, {"facility": "HOP Arnaud de Villeneuve", "city": "Montpellier", "zip": "34295", "country": "France", "geoPoint": {"lat": 43.61092, "lon": 3.87723}}, {"facility": "HOP La Piti\u00e9 Salp\u00eatri\u00e8re", "city": "Paris", "zip": "75651", "country": "France", "geoPoint": {"lat": 48.85341, "lon": 2.3488}}, {"facility": "Centre Hospitalier de Pau", "city": "Pau", "zip": "64046", "country": "France", "geoPoint": {"lat": 43.3, "lon": -0.36667}}, {"facility": "HOP Haut-L\u00e9v\u00eaque", "city": "Pessac", "zip": "33600", "country": "France", "geoPoint": {"lat": 44.81011, "lon": -0.64129}}, {"facility": "HOP Rangueil", "city": "Toulouse", "zip": "31059", "country": "France", "geoPoint": {"lat": 43.60426, "lon": 1.44367}}, {"facility": "INS Louis Mathieu", "city": "Vandoeuvre-l\u00e8s-Nancy", "zip": "54511", "country": "France", "geoPoint": {"lat": 48.65, "lon": 6.18333}}, {"facility": "Universit\u00e4tsklinikum Aachen, A\u00f6R", "city": "Aachen", "zip": "52074", "country": "Germany", "geoPoint": {"lat": 50.77664, "lon": 6.08342}}, {"facility": "Praxis Dr. Rieker, Berlin", "city": "Berlin", "zip": "10789", "country": "Germany", "geoPoint": {"lat": 52.52437, "lon": 13.41053}}, {"facility": "Charit\u00e9 - Universit\u00e4tsmedizin Berlin", "city": "Berlin", "zip": "12200", "country": "Germany", "geoPoint": {"lat": 52.52437, "lon": 13.41053}}, {"facility": "Vivantes Netzwerk f\u00fcr Gesundheit GmbH", "city": "Berlin", "zip": "12351", "country": "Germany", "geoPoint": {"lat": 52.52437, "lon": 13.41053}}, {"facility": "Charit\u00e9 - Universit\u00e4tsmedizin Berlin", "city": "Berlin", "zip": "13353", "country": "Germany", "geoPoint": {"lat": 52.52437, "lon": 13.41053}}, {"facility": "Klinikum Bielefeld gGmbH", "city": "Bielefeld", "zip": "33604", "country": "Germany", "geoPoint": {"lat": 52.03333, "lon": 8.53333}}, {"facility": "Praxis Dr. Menzel", "city": "Dessau-Ro\u00dflau", "zip": "06846", "country": "Germany"}, {"facility": "St. Johannes Hospital Dortmund", "city": "Dortmund", "zip": "44137", "country": "Germany", "geoPoint": {"lat": 51.51494, "lon": 7.466}}, {"facility": "St\u00e4dtisches Klinikum Dresden", "city": "Dresden", "zip": "01067", "country": "Germany", "geoPoint": {"lat": 51.05089, "lon": 13.73832}}, {"facility": "GWT-TUD GmbH", "city": "Dresden", "zip": "01307", "country": "Germany", "geoPoint": {"lat": 51.05089, "lon": 13.73832}}, {"facility": "Helios Klinikum Erfurt", "city": "Erfurt", "zip": "99089", "country": "Germany", "geoPoint": {"lat": 50.9787, "lon": 11.03283}}, {"facility": "Studienzentrum Bocholderstra\u00dfe", "city": "Essen", "zip": "45355", "country": "Germany", "geoPoint": {"lat": 51.45657, "lon": 7.01228}}, {"facility": "ClinPhenomics GmbH & Co KG, Frankfurt", "city": "Frankfurt", "zip": "60594", "country": "Germany", "geoPoint": {"lat": 50.11552, "lon": 8.68417}}, {"facility": "Universit\u00e4tsmedizin G\u00f6ttingen, Georg-August-Universit\u00e4t", "city": "G\u00f6ttingen", "zip": "37075", "country": "Germany", "geoPoint": {"lat": 51.53443, "lon": 9.93228}}, {"facility": "Asklepios Klinik St. Georg", "city": "Hamburg", "zip": "20099", "country": "Germany", "geoPoint": {"lat": 53.57532, "lon": 10.01534}}, {"facility": "Medizinische Hochschule Hannover", "city": "Hannover", "zip": "30625", "country": "Germany", "geoPoint": {"lat": 52.37052, "lon": 9.73322}}, {"facility": "Universit\u00e4tsklinikum Heidelberg", "city": "Heidelberg", "zip": "69120", "country": "Germany", "geoPoint": {"lat": 49.40768, "lon": 8.69079}}, {"facility": "Universit\u00e4tsklinikum des Saarlandes", "city": "Homburg", "zip": "66421", "country": "Germany", "geoPoint": {"lat": 49.32637, "lon": 7.33867}}, {"facility": "Universit\u00e4tsklinikum Jena", "city": "Jena", "zip": "07740", "country": "Germany", "geoPoint": {"lat": 50.92878, "lon": 11.5899}}, {"facility": "Universit\u00e4tsklinikum Schleswig-Holstein, Campus Kiel", "city": "Kiel", "zip": "24105", "country": "Germany", "geoPoint": {"lat": 54.32133, "lon": 10.13489}}, {"facility": "Asklepios Klinik Langen-Seligenstadt GmbH", "city": "Langen", "zip": "63225", "country": "Germany", "geoPoint": {"lat": 49.98955, "lon": 8.66852}}, {"facility": "M\u00e4rkische Gesundheitsholding GmbH & Co. KG, Klinikum L\u00fcdenscheid", "city": "L\u00fcdenscheid", "zip": "58515", "country": "Germany", "geoPoint": {"lat": 51.21977, "lon": 7.6273}}, {"facility": "Praxis Dr. Sarnighausen, L\u00fcneburg", "city": "L\u00fcneburg", "zip": "21339", "country": "Germany", "geoPoint": {"lat": 53.2509, "lon": 10.41409}}, {"facility": "Katholisches Klinikum St. Hildegardiskrankenhaus, Mainz", "city": "Mainz", "zip": "55131", "country": "Germany", "geoPoint": {"lat": 49.98419, "lon": 8.2791}}, {"facility": "Deutsches Herzzentrum M\u00fcnchen", "city": "M\u00fcnchen", "zip": "80636", "country": "Germany", "geoPoint": {"lat": 48.13743, "lon": 11.57549}}, {"facility": "Kardiologische Gemeinschaftspraxis Nienburg", "city": "Nienburg", "zip": "31582", "country": "Germany", "geoPoint": {"lat": 52.6461, "lon": 9.22086}}, {"facility": "Kardiologische Praxis Papenburg", "city": "Papenburg", "zip": "26871", "country": "Germany", "geoPoint": {"lat": 53.07738, "lon": 7.40444}}, {"facility": "Universit\u00e4tsklinikum Regensburg", "city": "Regensburg", "zip": "93053", "country": "Germany", "geoPoint": {"lat": 49.01513, "lon": 12.10161}}, {"facility": "Praxis Dr. Stenzel, Riesa", "city": "Riesa", "zip": "01587", "country": "Germany", "geoPoint": {"lat": 51.30777, "lon": 13.29168}}, {"facility": "Zentrum f\u00fcr Klinische Forschung", "city": "Wangen", "zip": "88239", "country": "Germany", "geoPoint": {"lat": 48.72933, "lon": 9.61175}}, {"facility": "Josephs-Hospital Warendorf", "city": "Warendorf", "zip": "48231", "country": "Germany", "geoPoint": {"lat": 51.95109, "lon": 7.98756}}, {"facility": "Petrus-Krankenhaus", "city": "Wuppertal", "zip": "42283", "country": "Germany", "geoPoint": {"lat": 51.27027, "lon": 7.16755}}, {"facility": "Lausmed Kft. Outpatient Unit of Internal Medicine", "city": "Baja", "zip": "6500", "country": "Hungary", "geoPoint": {"lat": 46.17496, "lon": 18.95639}}, {"facility": "Belgyogyaszati es Kardiologiai Maganrendelo", "city": "Bekescsaba", "zip": "5600", "country": "Hungary", "geoPoint": {"lat": 46.68333, "lon": 21.1}}, {"facility": "Clinexpert Kft.", "city": "Budapest", "zip": "1033", "country": "Hungary", "geoPoint": {"lat": 47.49801, "lon": 19.03991}}, {"facility": "Gottsegen Gyorgy Hungarian Instit.of Cardiology,Budapest", "city": "Budapest", "zip": "1096", "country": "Hungary", "geoPoint": {"lat": 47.49801, "lon": 19.03991}}, {"facility": "Bajcsy-Zsilinszky Hospital and Clinic", "city": "Budapest", "zip": "1106", "country": "Hungary", "geoPoint": {"lat": 47.49801, "lon": 19.03991}}, {"facility": "Semmelweis University", "city": "Budapest", "zip": "1122", "country": "Hungary", "geoPoint": {"lat": 47.49801, "lon": 19.03991}}, {"facility": "Milit.Hosp.-State Health Cent.", "city": "Budapest", "zip": "1134", "country": "Hungary", "geoPoint": {"lat": 47.49801, "lon": 19.03991}}, {"facility": "Uzsoki Street Hospital, Budapest", "city": "Budapest", "zip": "1145", "country": "Hungary", "geoPoint": {"lat": 47.49801, "lon": 19.03991}}, {"facility": "Nehezlegzes Ambulancia", "city": "Debrecen", "zip": "4027", "country": "Hungary", "geoPoint": {"lat": 47.53333, "lon": 21.63333}}, {"facility": "Bugat Pal Hospital, Gyongyos", "city": "Gyongyos", "zip": "3200", "country": "Hungary", "geoPoint": {"lat": 47.78257, "lon": 19.928}}, {"facility": "Selye Janos Hospital Komarom", "city": "Komarom", "zip": "2900", "country": "Hungary", "geoPoint": {"lat": 47.74318, "lon": 18.11913}}, {"facility": "Dorottya Kanizsai Hospital", "city": "Nagykanizsa", "zip": "8800", "country": "Hungary", "geoPoint": {"lat": 46.45347, "lon": 16.99104}}, {"facility": "Dr. Nagy Laszlo Kardiologiai Maganrendeles", "city": "Oroshaza", "zip": "5900", "country": "Hungary", "geoPoint": {"lat": 46.56667, "lon": 20.66667}}, {"facility": "Da Vinci Maganklinika", "city": "Pecs", "zip": "7635", "country": "Hungary", "geoPoint": {"lat": 46.08333, "lon": 18.23333}}, {"facility": "Pecsi Tudomanyegyetem", "city": "P\u00e9cs", "zip": "7623", "country": "Hungary", "geoPoint": {"lat": 46.08333, "lon": 18.23333}}, {"facility": "Fejer County Saint George University Teaching Hospital", "city": "Szekesfehervar", "zip": "8000", "country": "Hungary", "geoPoint": {"lat": 47.18995, "lon": 18.41034}}, {"facility": "Veszpremi Sziv es Egeszseg Centrum", "city": "Veszprem", "zip": "8200", "country": "Hungary", "geoPoint": {"lat": 47.09327, "lon": 17.91149}}, {"facility": "Doctor Jivraj Mehta Smarak Health Foundation", "city": "Ahmedabad", "zip": "380007", "country": "India", "geoPoint": {"lat": 23.02579, "lon": 72.58727}}, {"facility": "Kamalnayan Bajaj Hospital", "city": "Aurangabad", "zip": "431 005", "country": "India", "geoPoint": {"lat": 19.87757, "lon": 75.34226}}, {"facility": "Narayana Institute of Cardiac Sciences", "city": "Bangalore", "zip": "560099", "country": "India", "geoPoint": {"lat": 12.97194, "lon": 77.59369}}, {"facility": "Rajarajeswari Medical College", "city": "Bengaluru", "zip": "560074", "country": "India", "geoPoint": {"lat": 12.97194, "lon": 77.59369}}, {"facility": "Madras Medical Mission,", "city": "Chennai", "zip": "600 037", "country": "India", "geoPoint": {"lat": 13.08784, "lon": 80.27847}}, {"facility": "Apollo Speciality Hospital", "city": "Chennai", "zip": "600035", "country": "India", "geoPoint": {"lat": 13.08784, "lon": 80.27847}}, {"facility": "Medanta-The Medicity", "city": "Gurgaon", "zip": "122001", "country": "India", "geoPoint": {"lat": 28.4601, "lon": 77.02635}}, {"facility": "B.M. Birla Heart research Centre", "city": "Kolkatta", "zip": "700027", "country": "India"}, {"facility": "Siddhi Hospital", "city": "Nashik", "zip": "422007", "country": "India", "geoPoint": {"lat": 19.99727, "lon": 73.79096}}, {"facility": "Vijan Cardiac and Critical Care Centre", "city": "Nasik", "zip": "422005", "country": "India"}, {"facility": "Batra Hospital and Medical Research Centre", "city": "New Delhi", "zip": "110 062", "country": "India", "geoPoint": {"lat": 28.63576, "lon": 77.22445}}, {"facility": "GB Pant Hospital", "city": "New Delhi", "zip": "110002", "country": "India", "geoPoint": {"lat": 28.63576, "lon": 77.22445}}, {"facility": "Fortis Escorts Heart Institute", "city": "New Delhi", "zip": "110025", "country": "India", "geoPoint": {"lat": 28.63576, "lon": 77.22445}}, {"facility": "Sir Gangaram Hospital", "city": "New Delhi", "zip": "110060", "country": "India", "geoPoint": {"lat": 28.63576, "lon": 77.22445}}, {"facility": "Azienda Ospedaliera G. Rummo", "city": "Benevento", "zip": "82100", "country": "Italy", "geoPoint": {"lat": 41.1307, "lon": 14.77816}}, {"facility": "ASST Papa Giovanni XXIII - A.O. Papa Giovanni XXIII", "city": "Bergamo", "zip": "24127", "country": "Italy", "geoPoint": {"lat": 45.69601, "lon": 9.66721}}, {"facility": "Azienda Ospedaliera Universitaria Arcispedale Sant'Anna", "city": "Cona (FE)", "zip": "44124", "country": "Italy"}, {"facility": "Ospedale della Val di Chiana Santa Margherita", "city": "Cortona (AR)", "zip": "52040", "country": "Italy"}, {"facility": "Centro Cardiologico Monzino-IRCCS", "city": "Milano", "zip": "20138", "country": "Italy", "geoPoint": {"lat": 45.46427, "lon": 9.18951}}, {"facility": "Azienda Ospedaliera Universitaria \"Federico II\"", "city": "Napoli", "zip": "80131", "country": "Italy", "geoPoint": {"lat": 40.85216, "lon": 14.26811}}, {"facility": "Azienda Ospedaliera Universitaria Pisana", "city": "Pisa", "zip": "56126", "country": "Italy", "geoPoint": {"lat": 43.70853, "lon": 10.4036}}, {"facility": "Umberto I Pol. di Roma-Universit\u00e0 di Roma La Sapienza", "city": "Roma", "zip": "00161", "country": "Italy", "geoPoint": {"lat": 41.89193, "lon": 12.51133}}, {"facility": "Azienda Ospedaliera Sant'Andrea-Universit\u00e0 di Roma La Sapienza", "city": "Roma", "zip": "00189", "country": "Italy", "geoPoint": {"lat": 41.89193, "lon": 12.51133}}, {"facility": "Azienda Servizi Sanitari 1 Triestina", "city": "Trieste", "zip": "34128", "country": "Italy", "geoPoint": {"lat": 45.64953, "lon": 13.77679}}, {"facility": "Kasugai Municipal Hospital", "city": "Aichi, Kasugai", "zip": "486-8510", "country": "Japan", "geoPoint": {"lat": 32.51879, "lon": 130.62158}}, {"facility": "Nagoya Kyoritsu Hospital", "city": "Aichi, Nagoya", "zip": "454-0933", "country": "Japan", "geoPoint": {"lat": 32.51879, "lon": 130.62158}}, {"facility": "Japanese Red Cross Nagoya Daini Hospital", "city": "Aichi, Nagoya", "zip": "466-8650", "country": "Japan", "geoPoint": {"lat": 32.51879, "lon": 130.62158}}, {"facility": "Toyota Memorial Hospital", "city": "Aichi, Toyota", "zip": "471-8513", "country": "Japan", "geoPoint": {"lat": 32.51879, "lon": 130.62158}}, {"facility": "Chiba Heart Clinic", "city": "Chiba, Chiba", "zip": "263-0043", "country": "Japan"}, {"facility": "Kimitsu Chuo Hospital", "city": "Chiba, Kisarazu", "zip": "292-8535", "country": "Japan"}, {"facility": "Seikeikai New Tokyo Heart Clinic", "city": "Chiba, Matsudo", "zip": "271-0077", "country": "Japan"}, {"facility": "Ehime Prefectural Central Hospital", "city": "Ehime, Matsuyama", "zip": "790-0024", "country": "Japan"}, {"facility": "Matsuyama Shimin Hospital", "city": "Ehime, Matsuyama", "zip": "790-0067", "country": "Japan"}, {"facility": "Uwajima City Hospital", "city": "Ehime, Uwajima", "zip": "798-8510", "country": "Japan"}, {"facility": "Fukuiken Saiseikai Hospital", "city": "Fukui, Fukui", "zip": "918-8503", "country": "Japan"}, {"facility": "Fukuoka University Chikushi Hospital", "city": "Fukuoka, Chikushino", "zip": "818-8502", "country": "Japan", "geoPoint": {"lat": 33.6, "lon": 130.41667}}, {"facility": "Fukuokaken Saiseikai Futsukaichi Hospital", "city": "Fukuoka, Chikushino", "zip": "818-8516", "country": "Japan", "geoPoint": {"lat": 33.6, "lon": 130.41667}}, {"facility": "Saiseikai Fukuoka General Hospital", "city": "Fukuoka, Fukuoka", "zip": "810-0001", "country": "Japan", "geoPoint": {"lat": 33.6, "lon": 130.41667}}, {"facility": "National Hospital Organization Kyushu Medical Center", "city": "Fukuoka, Fukuoka", "zip": "810-8563", "country": "Japan", "geoPoint": {"lat": 33.6, "lon": 130.41667}}, {"facility": "Kyushu University Hospital", "city": "Fukuoka, Fukuoka", "zip": "812-8582", "country": "Japan", "geoPoint": {"lat": 33.6, "lon": 130.41667}}, {"facility": "Aso Co.,Ltd Iizuka Hospital", "city": "Fukuoka, Iizuka", "zip": "820-8505", "country": "Japan", "geoPoint": {"lat": 33.6, "lon": 130.41667}}, {"facility": "Steel Memorial Yawata Hospital", "city": "Fukuoka, Kitakyushu", "zip": "805-8508", "country": "Japan", "geoPoint": {"lat": 33.6, "lon": 130.41667}}, {"facility": "Japan Community Health Care Organization Kyushu Hospital", "city": "Fukuoka, Kitakyushu", "zip": "806-8501", "country": "Japan", "geoPoint": {"lat": 33.6, "lon": 130.41667}}, {"facility": "Ogaki Municipal Hospital", "city": "Gifu, Ogaki", "zip": "503-8502", "country": "Japan", "geoPoint": {"lat": 35.42291, "lon": 136.76039}}, {"facility": "Chuno Kosei Hospital", "city": "Gifu, Seki", "zip": "501-3802", "country": "Japan"}, {"facility": "Fukuyama City Hospital", "city": "Hiroshima, Fukuyama", "zip": "721-8511", "country": "Japan"}, {"facility": "JA Hiroshima General Hospital", "city": "Hiroshima, Hatsukaichi", "zip": "738-8503", "country": "Japan"}, {"facility": "Shobara Red Cross Hospital", "city": "Hiroshima, Shobara", "zip": "727-0013", "country": "Japan"}, {"facility": "National Hospital Organization Hakodate Hospital", "city": "Hokkaido, Hakodate", "zip": "041-8512", "country": "Japan"}, {"facility": "Teine Keijinkai Clinic", "city": "Hokkaido, Sapporo", "zip": "006-0811", "country": "Japan"}, {"facility": "Tomakomai City Hospital", "city": "Hokkaido, Tomakomai", "zip": "053-8567", "country": "Japan"}, {"facility": "Hyogo Prefectural Amagasaki General Medical Center", "city": "Hyogo, Amagasaki", "zip": "660-8550", "country": "Japan"}, {"facility": "Hyogo Brain and Heart Center", "city": "Hyogo, Himeji", "zip": "670-0981", "country": "Japan"}, {"facility": "National Hospital Organization Kobe Medical Center", "city": "Hyogo, Kobe", "zip": "654-0155", "country": "Japan"}, {"facility": "Mito Medical Center", "city": "Ibaraki, Higashiibaraki-gun", "zip": "311-3193", "country": "Japan"}, {"facility": "National Hospital Organization Kanazawa Medical Center", "city": "Ishikawa, Kanazawa", "zip": "920-8650", "country": "Japan"}, {"facility": "Mitoyo General Hospital", "city": "Kagawa, Kanonji", "zip": "769-1695", "country": "Japan"}, {"facility": "Kagawa Prefectural Central Hospital", "city": "Kagawa, Takamatsu", "zip": "760-8557", "country": "Japan"}, {"facility": "Yamamoto Clinic", "city": "Kanagawa, Sagamihara", "zip": "252-0311", "country": "Japan"}, {"facility": "Kanagawa Cardiovascular and Respiratory Center", "city": "Kanagawa, Yokohama", "zip": "236-0051", "country": "Japan"}, {"facility": "Japanese Red Cross Kumamoto Hospital", "city": "Kumamoto, Kumamoto", "zip": "861-8520", "country": "Japan", "geoPoint": {"lat": 32.80589, "lon": 130.69182}}, {"facility": "Seiwakai Suizenji Touya Hospital", "city": "Kumamoto, Kumamoto", "zip": "862-0950", "country": "Japan", "geoPoint": {"lat": 32.80589, "lon": 130.69182}}, {"facility": "Kumamoto Rosai Hospital", "city": "Kumamoto, Yatsushiro", "zip": "866-8533", "country": "Japan"}, {"facility": "Uji-Tokushukai Medical Center", "city": "Kyoto, Uji", "zip": "611-0041", "country": "Japan"}, {"facility": "Sendai Kousei Hospital", "city": "Miyagi, Sendai", "zip": "980-0873", "country": "Japan"}, {"facility": "Sendai Tokushukai Hospital", "city": "Miyagi, Sendai", "zip": "981-3131", "country": "Japan"}, {"facility": "The Cardiovascular Center of Sendai", "city": "Miyagi, Sendai", "zip": "981-3133", "country": "Japan"}, {"facility": "National Hospital Organization Sendai Medical Center", "city": "Miyagi, Sendai", "zip": "983-8520", "country": "Japan"}, {"facility": "Miyazaki Medical Association Hospital", "city": "Miyazaki, Miyazaki", "zip": "880-0834", "country": "Japan"}, {"facility": "Hokushin General Hospital", "city": "Nagano, Nakano", "zip": "383-8505", "country": "Japan"}, {"facility": "Nagasaki Medical Center", "city": "Nagasaki, Omura", "zip": "856-8562", "country": "Japan"}, {"facility": "Okayama City General Medical Center", "city": "Okayama, Okayama", "zip": "700-8557", "country": "Japan"}, {"facility": "Naha City Hospital", "city": "Okinawa, Naha", "zip": "902-8511", "country": "Japan"}, {"facility": "Nanbu Tokushukai Hospital", "city": "Okinawa, Shimajiri-gun", "zip": "901-0493", "country": "Japan"}, {"facility": "Urasoe General Hospital", "city": "Okinawa, Urasoe", "zip": "901-2132", "country": "Japan"}, {"facility": "Higashiosaka City Medical Center", "city": "Osaka, Higashiosaka", "zip": "578-8588", "country": "Japan", "geoPoint": {"lat": 34.69374, "lon": 135.50218}}, {"facility": "Kitano Hospital", "city": "Osaka, Osaka", "zip": "530-8480", "country": "Japan", "geoPoint": {"lat": 34.69374, "lon": 135.50218}}, {"facility": "Yodogawa Christian Hospital", "city": "Osaka, Osaka", "zip": "533-0024", "country": "Japan", "geoPoint": {"lat": 34.69374, "lon": 135.50218}}, {"facility": "Seichokai Bell Land General Hospital", "city": "Osaka, Sakai", "zip": "599-8247", "country": "Japan", "geoPoint": {"lat": 34.69374, "lon": 135.50218}}, {"facility": "Hokusetsu General Hospital", "city": "Osaka, Takatsuki", "zip": "569-8585", "country": "Japan", "geoPoint": {"lat": 34.69374, "lon": 135.50218}}, {"facility": "San-Ai Hospital", "city": "Saitama, Saitama", "zip": "338-0837", "country": "Japan"}, {"facility": "Kosekai Iwatsuki-minami Hospital", "city": "Saitama, Saitama", "zip": "339-0033", "country": "Japan"}, {"facility": "Kusatsu General Hospital", "city": "Shiga, Kusatsu", "zip": "525-8585", "country": "Japan"}, {"facility": "Tokushima Prefectural Central Hospital", "city": "Tokushima, Tokushima", "zip": "770-8539", "country": "Japan"}, {"facility": "National Hospital Organization Tokyo Medical Center", "city": "Tokyo, Meguro-ku", "zip": "152-8902", "country": "Japan"}, {"facility": "Ome Municipal General Hospital", "city": "Tokyo, Ome", "zip": "198-0042", "country": "Japan"}, {"facility": "Tokyo Rosai Hospital", "city": "Tokyo, Ota-ku", "zip": "143-0013", "country": "Japan"}, {"facility": "Sekino Hospital", "city": "Tokyo, Toshima-ku", "zip": "171-0014", "country": "Japan"}, {"facility": "Minami Wakayama Medical Center", "city": "Wakayama, Tanabe", "zip": "646-8558", "country": "Japan"}, {"facility": "Kanmon Medical Center", "city": "Yamaguchi, Shimonoseki", "zip": "752-8510", "country": "Japan"}, {"facility": "Dong-A University Hospital", "city": "Busan", "zip": "602-715", "country": "Korea, Republic of", "geoPoint": {"lat": 35.10278, "lon": 129.04028}}, {"facility": "Inje University Busan Paik Hospital", "city": "Busan", "zip": "614-735", "country": "Korea, Republic of", "geoPoint": {"lat": 35.10278, "lon": 129.04028}}, {"facility": "Chungbuk National University Hospital", "city": "Cheongju", "zip": "361-771", "country": "Korea, Republic of", "geoPoint": {"lat": 36.63722, "lon": 127.48972}}, {"facility": "Chungnam National University Hospital", "city": "Daejeon", "zip": "35015", "country": "Korea, Republic of", "geoPoint": {"lat": 36.32139, "lon": 127.41972}}, {"facility": "Gachon University Gil Medical Center", "city": "Incheon", "zip": "21565", "country": "Korea, Republic of", "geoPoint": {"lat": 37.45646, "lon": 126.70515}}, {"facility": "Seoul National University Hospital", "city": "Seoul", "zip": "03080", "country": "Korea, Republic of", "geoPoint": {"lat": 37.566, "lon": 126.9784}}, {"facility": "Severance Hospital", "city": "Seoul", "zip": "03722", "country": "Korea, Republic of", "geoPoint": {"lat": 37.566, "lon": 126.9784}}, {"facility": "Asan Medical Center", "city": "Seoul", "zip": "05505", "country": "Korea, Republic of", "geoPoint": {"lat": 37.566, "lon": 126.9784}}, {"facility": "Samsung Medical Center", "city": "Seoul", "zip": "06351", "country": "Korea, Republic of", "geoPoint": {"lat": 37.566, "lon": 126.9784}}, {"facility": "Korea University Guro Hospital", "city": "Seoul", "zip": "08308", "country": "Korea, Republic of", "geoPoint": {"lat": 37.566, "lon": 126.9784}}, {"facility": "Seoul National University Bundang Hospital", "city": "Sungnam", "zip": "463-707", "country": "Korea, Republic of"}, {"facility": "Wonju Severance Christian Hosp", "city": "Wonju", "zip": "26426", "country": "Korea, Republic of", "geoPoint": {"lat": 37.35139, "lon": 127.94528}}, {"facility": "Hospital Cardiologica Aguascalientes", "city": "Aguascalientes", "zip": "20230", "country": "Mexico", "geoPoint": {"lat": 21.88234, "lon": -102.28259}}, {"facility": "Instituto Nacional de Cardiologia Ignacio Chavez", "city": "Ciudad de Mexico", "zip": "14080", "country": "Mexico", "geoPoint": {"lat": 19.42847, "lon": -99.12766}}, {"facility": "Centro de Investigacion Biomedica y Farmaceutica, S.C.", "city": "Distrito Federal", "zip": "03100", "country": "Mexico", "geoPoint": {"lat": 16.59, "lon": -93.02694}}, {"facility": "Unidad de Investigacion Clinica Cardiometabolica de Occident", "city": "Guadalajara", "zip": "44150", "country": "Mexico", "geoPoint": {"lat": 20.66682, "lon": -103.39182}}, {"facility": "Dise\u00f1o y Planeaci\u00f3n en Investigaci\u00f3n M\u00e9dica SC", "city": "Guadalajara", "zip": "44656", "country": "Mexico", "geoPoint": {"lat": 20.66682, "lon": -103.39182}}, {"facility": "Cardiologia Clinica e Intervencionista", "city": "Guadalajara", "zip": "44670", "country": "Mexico", "geoPoint": {"lat": 20.66682, "lon": -103.39182}}, {"facility": "Centro de Investigaci\u00f3n Clinica Acelerada, S.C.", "city": "Mexico", "zip": "07020", "country": "Mexico", "geoPoint": {"lat": 19.42847, "lon": -99.12766}}, {"facility": "Instituto Cardiovascular de Monclova, S de RL de CV", "city": "Monclova", "zip": "25750", "country": "Mexico", "geoPoint": {"lat": 26.90687, "lon": -101.42056}}, {"facility": "CEDOPEC-Ctro Esp en Diab, Obesidad y Prev de Enf Cardiovasc", "city": "M\u00e9xico", "zip": "11650", "country": "Mexico", "geoPoint": {"lat": 19.42847, "lon": -99.12766}}, {"facility": "Hospital Universitario Dr Jose Eleuterio Gonzalez", "city": "Nuevo Leon", "zip": "64460", "country": "Mexico"}, {"facility": "Centro Integral Medico SJR S.C.", "city": "San Juan del Rio", "zip": "76800", "country": "Mexico", "geoPoint": {"lat": 20.38886, "lon": -99.99577}}, {"facility": "Cardioarritmias e Investigaci\u00f3n S.C", "city": "San Luis Potosi", "zip": "78213", "country": "Mexico", "geoPoint": {"lat": 22.14982, "lon": -100.97916}}, {"facility": "Centro de Investigacion Cardiovascular y Metabolica", "city": "Tijuana", "zip": "22500", "country": "Mexico", "geoPoint": {"lat": 32.5027, "lon": -117.00371}}, {"facility": "Centro de Investigacion Medica Alberto Bazzoni S.A. de C.V.", "city": "Torreon", "zip": "27000", "country": "Mexico", "geoPoint": {"lat": 25.54389, "lon": -103.41898}}, {"facility": "Hospital Dr Angel Leano", "city": "Zapopan", "zip": "45200", "country": "Mexico", "geoPoint": {"lat": 20.72356, "lon": -103.38479}}, {"facility": "Ziekenhuisgroep Twente locatie Almelo", "city": "Almelo", "zip": "7609 PP", "country": "Netherlands", "geoPoint": {"lat": 52.35667, "lon": 6.6625}}, {"facility": "BovenIJ Ziekenhuis", "city": "Amsterdam", "zip": "1034 CS", "country": "Netherlands", "geoPoint": {"lat": 52.37403, "lon": 4.88969}}, {"facility": "Onze Lieve Vrouwe Gasthuis, Locatie West", "city": "Amsterdam", "zip": "1061 AE", "country": "Netherlands", "geoPoint": {"lat": 52.37403, "lon": 4.88969}}, {"facility": "Amsterdam UMC Locatie VUMC", "city": "Amsterdam", "zip": "1081HV", "country": "Netherlands", "geoPoint": {"lat": 52.37403, "lon": 4.88969}}, {"facility": "Onze Lieve Vrouwe Gasthuis", "city": "Amsterdam", "zip": "1091AC", "country": "Netherlands", "geoPoint": {"lat": 52.37403, "lon": 4.88969}}, {"facility": "Amsterdam UMC, Locatie AMC", "city": "Amsterdam", "zip": "1105 AZ", "country": "Netherlands", "geoPoint": {"lat": 52.37403, "lon": 4.88969}}, {"facility": "Rode Kruis Ziekenhuis Beverwijk", "city": "Beverwijk", "zip": "1942 LE", "country": "Netherlands", "geoPoint": {"lat": 52.48333, "lon": 4.65694}}, {"facility": "Tergooiziekenhuizen locatie Blaricum", "city": "Blaricum", "zip": "1261 AN", "country": "Netherlands", "geoPoint": {"lat": 52.2725, "lon": 5.24167}}, {"facility": "Amphia Ziekenhuis", "city": "Breda", "zip": "4818 CK", "country": "Netherlands", "geoPoint": {"lat": 51.58656, "lon": 4.77596}}, {"facility": "HMC Bronovo", "city": "Den Haag", "zip": "2597 AX", "country": "Netherlands", "geoPoint": {"lat": 52.07667, "lon": 4.29861}}, {"facility": "Ziekenhuis Gelderse Vallei", "city": "EDE", "zip": "6716 RP", "country": "Netherlands", "geoPoint": {"lat": 52.03333, "lon": 5.65833}}, {"facility": "Catharina Ziekenhuis", "city": "Eindhoven", "zip": "5623 EJ", "country": "Netherlands", "geoPoint": {"lat": 51.44083, "lon": 5.47778}}, {"facility": "Universitair Medisch Centrum Groningen", "city": "Groningen", "zip": "9713 GZ", "country": "Netherlands", "geoPoint": {"lat": 53.21917, "lon": 6.56667}}, {"facility": "Zuyderland Medisch Centrum", "city": "Heerlen", "zip": "6419 PC", "country": "Netherlands", "geoPoint": {"lat": 50.88365, "lon": 5.98154}}, {"facility": "Vasculair Onderzoek Centrum", "city": "Hoorn", "zip": "1624 NP", "country": "Netherlands", "geoPoint": {"lat": 52.6425, "lon": 5.05978}}, {"facility": "Maastricht Universitair Medisch Centrum", "city": "Maastricht", "zip": "6229 HX", "country": "Netherlands", "geoPoint": {"lat": 50.84833, "lon": 5.68889}}, {"facility": "Diaconessenhuis Meppel", "city": "Meppel", "zip": "7943 KA", "country": "Netherlands", "geoPoint": {"lat": 52.69583, "lon": 6.19444}}, {"facility": "St. Antonius ziekenhuis, locatie Nieuwegein", "city": "Nieuwegein", "zip": "3435 CM", "country": "Netherlands", "geoPoint": {"lat": 52.02917, "lon": 5.08056}}, {"facility": "Radboud Universitair Medisch Centrum", "city": "Nijmegen", "zip": "6525 GL", "country": "Netherlands", "geoPoint": {"lat": 51.8425, "lon": 5.85278}}, {"facility": "Ziekenhuis Bernhoven Uden", "city": "Uden", "zip": "5406 PT", "country": "Netherlands", "geoPoint": {"lat": 51.66083, "lon": 5.61944}}, {"facility": "Vie Curi Medisch Centrum", "city": "Venlo", "zip": "5912 BL", "country": "Netherlands", "geoPoint": {"lat": 51.37, "lon": 6.16806}}, {"facility": "De Heel - Zaans Medisch Centrum", "city": "Zaandam", "zip": "1502 DV", "country": "Netherlands", "geoPoint": {"lat": 52.43854, "lon": 4.82643}}, {"facility": "Gelre Ziekenhuis Zutphen", "city": "Zutphen", "zip": "7207 AE", "country": "Netherlands", "geoPoint": {"lat": 52.13833, "lon": 6.20139}}, {"facility": "KLIMED Marek Klimkiewicz", "city": "Bialystok", "zip": "15-765", "country": "Poland", "geoPoint": {"lat": 53.13333, "lon": 23.16433}}, {"facility": "Univ. Clinic Hosp, Bialystok", "city": "Bialystok", "zip": "15276", "country": "Poland", "geoPoint": {"lat": 53.13333, "lon": 23.16433}}, {"facility": "American Heart of Poland Sp. z o.o.", "city": "Bielsko-Biala", "zip": "43-316", "country": "Poland", "geoPoint": {"lat": 49.82245, "lon": 19.04686}}, {"facility": "NZOZ Centrum Medyczne KERmed", "city": "Bydgoszcz", "zip": "85231", "country": "Poland", "geoPoint": {"lat": 53.1235, "lon": 18.00762}}, {"facility": "Polsko-Amerykanskie Kliniki Serca", "city": "Chorzow", "zip": "32-500", "country": "Poland", "geoPoint": {"lat": 50.30582, "lon": 18.9742}}, {"facility": "American Heart of Poland Sp. z o.o.", "city": "Dabrowa Gornicza", "zip": "41-300", "country": "Poland", "geoPoint": {"lat": 50.31818, "lon": 19.2374}}, {"facility": "Poradnia Kardiologiczna Jaroslaw Jurowiecki", "city": "Gdansk", "zip": "80-286", "country": "Poland", "geoPoint": {"lat": 54.35205, "lon": 18.64637}}, {"facility": "University Clinical Center, Gdansk", "city": "Gdansk", "zip": "80952", "country": "Poland", "geoPoint": {"lat": 54.35205, "lon": 18.64637}}, {"facility": "Indywidualna Specjalistyczna Praktyka Lekarska", "city": "Gdynia", "zip": "81-157", "country": "Poland", "geoPoint": {"lat": 54.51889, "lon": 18.53188}}, {"facility": "Saint Wincenty a Paulo Hosp., Cardiology Dept., Gdynia", "city": "Gdynia", "zip": "81348", "country": "Poland", "geoPoint": {"lat": 54.51889, "lon": 18.53188}}, {"facility": "Szpital Zakonu Bonifratow Sp. z o.o.", "city": "Katowice", "zip": "40-211", "country": "Poland", "geoPoint": {"lat": 50.25841, "lon": 19.02754}}, {"facility": "Specialistic Cardiology&Hypertension Out-patient Clin,Kielce", "city": "Kielce", "zip": "25525", "country": "Poland", "geoPoint": {"lat": 50.87033, "lon": 20.62752}}, {"facility": "Leszek Bryniarski Specialized Medical Cabinet", "city": "Krakow", "zip": "30-082", "country": "Poland", "geoPoint": {"lat": 50.06143, "lon": 19.93658}}, {"facility": "Krakow Specialistic Hospital of John Paul II", "city": "Krakow", "zip": "31-202", "country": "Poland", "geoPoint": {"lat": 50.06143, "lon": 19.93658}}, {"facility": "SANTA FAMILIA Centrum Badan, Profilaktyki i Leczenia", "city": "Lodz", "zip": "90-302", "country": "Poland", "geoPoint": {"lat": 51.75, "lon": 19.46667}}, {"facility": "Nzoz Salus", "city": "Lodz", "zip": "91-302", "country": "Poland", "geoPoint": {"lat": 51.75, "lon": 19.46667}}, {"facility": "Individual Specialized Practice", "city": "Lodz", "zip": "94-255", "country": "Poland", "geoPoint": {"lat": 51.75, "lon": 19.46667}}, {"facility": "Lowickie Cardiology Center", "city": "Lowicz", "zip": "99-400", "country": "Poland", "geoPoint": {"lat": 52.10714, "lon": 19.94525}}, {"facility": "American Heart of Poland Sp. z o.o.", "city": "Nysa", "zip": "48-300", "country": "Poland", "geoPoint": {"lat": 50.47379, "lon": 17.33437}}, {"facility": "Medicome Sp. z o.o.", "city": "Oswiecim", "zip": "32-600", "country": "Poland", "geoPoint": {"lat": 50.03437, "lon": 19.21037}}, {"facility": "Specialized Practice Dr. Janusz Spyra", "city": "Ruda Slaska", "zip": "41-709", "country": "Poland", "geoPoint": {"lat": 50.2584, "lon": 18.85632}}, {"facility": "Centrum Medyczne Medyk", "city": "Rzeszow", "zip": "35-055", "country": "Poland", "geoPoint": {"lat": 50.04132, "lon": 21.99901}}, {"facility": "Lukmed Lukasz Wozniak", "city": "Siedlce", "zip": "08-110", "country": "Poland", "geoPoint": {"lat": 52.16772, "lon": 22.29006}}, {"facility": "Clinmedica Research Omc sp. z o.o. sp.k., Skierniewice", "city": "Skierniewice", "zip": "96-100", "country": "Poland", "geoPoint": {"lat": 51.95485, "lon": 20.15837}}, {"facility": "KO-MED Centra Kliniczne Staszow", "city": "Staszow", "zip": "28-200", "country": "Poland", "geoPoint": {"lat": 50.56307, "lon": 21.16593}}, {"facility": "The Provincial Polyclinical Hospital in Torun", "city": "Torun", "zip": "87-100", "country": "Poland", "geoPoint": {"lat": 53.01375, "lon": 18.59814}}, {"facility": "American Heart of Poland Sp. z o.o.", "city": "Tychy", "zip": "43-100", "country": "Poland", "geoPoint": {"lat": 50.13717, "lon": 18.96641}}, {"facility": "American Heart of Poland Sp. z o.o.", "city": "Ustron", "zip": "43-450", "country": "Poland", "geoPoint": {"lat": 49.72153, "lon": 18.80198}}, {"facility": "Central Hospital of Medical Academy, Warsaw", "city": "Warsaw", "zip": "02-097", "country": "Poland", "geoPoint": {"lat": 52.22977, "lon": 21.01178}}, {"facility": "McM Polimedica", "city": "Warszawa", "zip": "02-777", "country": "Poland", "geoPoint": {"lat": 52.22977, "lon": 21.01178}}, {"facility": "4. Military Clinical Hospital with Polyclinic SP ZOZ", "city": "Wroclaw", "zip": "50-981", "country": "Poland", "geoPoint": {"lat": 51.1, "lon": 17.03333}}, {"facility": "Zgierskie Center of Cardiology MED-PRO", "city": "Zgierz", "zip": "95-100", "country": "Poland", "geoPoint": {"lat": 51.85561, "lon": 19.40623}}, {"facility": "Specialist Hospital J. Dietla NZOZ Specialized Clinic \"Gemini\"", "city": "Zychlin", "zip": "62-571", "country": "Poland", "geoPoint": {"lat": 52.24404, "lon": 19.62613}}, {"facility": "Hospital Quiron. I.C.U.", "city": "Barcelona", "zip": "08023", "country": "Spain", "geoPoint": {"lat": 41.38879, "lon": 2.15899}}, {"facility": "Hospital Santa Creu i Sant Pau", "city": "Barcelona", "zip": "08026", "country": "Spain", "geoPoint": {"lat": 41.38879, "lon": 2.15899}}, {"facility": "Hospital Universitario Virgen de la Arrixaca", "city": "El Palmar", "zip": "30120", "country": "Spain", "geoPoint": {"lat": 37.93939, "lon": -1.16095}}, {"facility": "Hospital de Bellvitge", "city": "L'Hospitalet de Llobregat", "zip": "08907", "country": "Spain", "geoPoint": {"lat": 41.35967, "lon": 2.10028}}, {"facility": "Hospital Ram\u00f3n y Cajal", "city": "Madrid", "zip": "28034", "country": "Spain", "geoPoint": {"lat": 40.4165, "lon": -3.70256}}, {"facility": "Hospital Cl\u00ednico San Carlos", "city": "Madrid", "zip": "28040", "country": "Spain", "geoPoint": {"lat": 40.4165, "lon": -3.70256}}, {"facility": "Hospital Universitario 12 de Octubre", "city": "Madrid", "zip": "28041", "country": "Spain", "geoPoint": {"lat": 40.4165, "lon": -3.70256}}, {"facility": "Hospital La Paz", "city": "Madrid", "zip": "28046", "country": "Spain", "geoPoint": {"lat": 40.4165, "lon": -3.70256}}, {"facility": "Hospital Virgen de la Victoria", "city": "Malaga", "zip": "29010", "country": "Spain", "geoPoint": {"lat": 36.72016, "lon": -4.42034}}, {"facility": "Complejo Hospitalario Universitario de Orense", "city": "Orense", "zip": "32005", "country": "Spain", "geoPoint": {"lat": 42.33669, "lon": -7.86407}}, {"facility": "Hospital Cl\u00ednico de Santiago", "city": "Santiago de Compostela", "zip": "15706", "country": "Spain", "geoPoint": {"lat": 42.88052, "lon": -8.54569}}, {"facility": "Hospital Cl\u00ednico Universitario de Valladolid", "city": "Valladolid", "zip": "47003", "country": "Spain", "geoPoint": {"lat": 41.65518, "lon": -4.72372}}, {"facility": "Barnet General Hospital", "city": "Barnet", "zip": "EN5 3DJ", "country": "United Kingdom", "geoPoint": {"lat": 51.65, "lon": -0.2}}, {"facility": "University Hospital of Wales", "city": "Cardiff", "zip": "CF14 4XW", "country": "United Kingdom", "geoPoint": {"lat": 51.48, "lon": -3.18}}, {"facility": "Park & St Francis Surgery", "city": "Eastleigh", "zip": "SO53 4ST", "country": "United Kingdom", "geoPoint": {"lat": 50.96667, "lon": -1.35}}, {"facility": "Wycombe General Hospital", "city": "High Wycombe", "zip": "HP11 2TT", "country": "United Kingdom", "geoPoint": {"lat": 51.62907, "lon": -0.74934}}, {"facility": "Glenfield Hospital", "city": "Leicester", "zip": "LE3 9QP", "country": "United Kingdom", "geoPoint": {"lat": 52.6386, "lon": -1.13169}}, {"facility": "St Bartholomew's Hospital", "city": "London", "zip": "EC1A 7BE", "country": "United Kingdom", "geoPoint": {"lat": 51.50853, "lon": -0.12574}}, {"facility": "Luton and Dunstable University Hospital", "city": "Luton", "zip": "LU4 0DZ", "country": "United Kingdom", "geoPoint": {"lat": 51.87967, "lon": -0.41748}}, {"facility": "St Mary's Hospital", "city": "Newport", "zip": "PO30 5TG", "country": "United Kingdom", "geoPoint": {"lat": 51.58774, "lon": -2.99835}}, {"facility": "Morriston Hospital", "city": "Swansea", "zip": "SA6 6NL", "country": "United Kingdom", "geoPoint": {"lat": 51.62079, "lon": -3.94323}}]}, "referencesModule": {"references": [{"pmid": "36129693", "type": "DERIVED", "citation": "Ferreira JP, Zannad F, Butler J, Filippatos G, Pocock SJ, Brueckmann M, Steubl D, Schueler E, Anker SD, Packer M. Association of Empagliflozin Treatment With Albuminuria Levels in Patients With Heart Failure: A Secondary Analysis of EMPEROR-Pooled. JAMA Cardiol. 2022 Nov 1;7(11):1148-1159. doi: 10.1001/jamacardio.2022.2924. Erratum In: JAMA Cardiol. 2022 Nov 1;7(11):1177."}, {"pmid": "35687107", "type": "DERIVED", "citation": "Ferreira JP, Zannad F, Butler J, Filipattos G, Ritter I, Schuler E, Kraus BJ, Pocock SJ, Anker SD, Packer M. Empagliflozin and serum potassium in heart failure: an analysis from EMPEROR-Pooled. Eur Heart J. 2022 Aug 14;43(31):2984-2993. doi: 10.1093/eurheartj/ehac306. Erratum In: Eur Heart J. 2022 Jul 22;:"}, {"pmid": "35331406", "type": "DERIVED", "citation": "Ferreira JP, Butler J, Zannad F, Filippatos G, Schueler E, Steubl D, Zeller C, Januzzi JL, Pocock S, Packer M, Anker SD. Mineralocorticoid Receptor Antagonists and Empagliflozin in Patients With Heart Failure and Preserved Ejection Fraction. J Am Coll Cardiol. 2022 Mar 29;79(12):1129-1137. doi: 10.1016/j.jacc.2022.01.029."}, {"pmid": "34957660", "type": "DERIVED", "citation": "Ferreira JP, Anker SD, Butler J, Filippatos G, Iwata T, Salsali A, Zeller C, Pocock SJ, Zannad F, Packer M. Impact of anaemia and the effect of empagliflozin in heart failure with reduced ejection fraction: findings from EMPEROR-Reduced. Eur J Heart Fail. 2022 Apr;24(4):708-715. doi: 10.1002/ejhf.2409. Epub 2022 Jan 9."}, {"pmid": "34861154", "type": "DERIVED", "citation": "Verma S, Dhingra NK, Butler J, Anker SD, Ferreira JP, Filippatos G, Januzzi JL, Lam CSP, Sattar N, Peil B, Nordaby M, Brueckmann M, Pocock SJ, Zannad F, Packer M; EMPEROR-Reduced trial committees and investigators. Empagliflozin in the treatment of heart failure with reduced ejection fraction in addition to background therapies and therapeutic combinations (EMPEROR-Reduced): a post-hoc analysis of a randomised, double-blind trial. Lancet Diabetes Endocrinol. 2022 Jan;10(1):35-45. doi: 10.1016/S2213-8587(21)00292-8. Epub 2021 Nov 30."},