{"protocolSection": {"identificationModule": {"nctId": "NCT01475721", "orgStudyIdInfo": {"id": "115359"}, "organization": {"fullName": "GlaxoSmithKline", "class": "INDUSTRY"}, "briefTitle": "SAS115359: A 6-month Study to Assess the Safety and Benefit of Inhaled Fluticasone Propionate/Salmeterol Combination Compared With Inhaled Fluticasone Propionate in the Treatment of Adolescents and Adults (12 Years of Age and Older) With Asthma.", "officialTitle": "SAS115359, a Safety and Efficacy Study of Inhaled Fluticasone Propionate/Salmeterol Combination Versus Inhaled Fluticasone Propionate in the Treatment of Adolescent and Adult Subjects With Asthma", "acronym": "AUSTRI"}, "statusModule": {"statusVerifiedDate": "2018-08", "overallStatus": "COMPLETED", "expandedAccessInfo": {"hasExpandedAccess": false}, "startDateStruct": {"date": "2011-11-18", "type": "ACTUAL"}, "primaryCompletionDateStruct": {"date": "2015-06-23", "type": "ACTUAL"}, "completionDateStruct": {"date": "2015-06-23", "type": "ACTUAL"}, "studyFirstSubmitDate": "2011-11-17", "studyFirstSubmitQcDate": "2011-11-17", "studyFirstPostDateStruct": {"date": "2011-11-21", "type": "ESTIMATED"}, "resultsFirstSubmitDate": "2015-12-03", "resultsFirstSubmitQcDate": "2015-12-10", "resultsFirstPostDateStruct": {"date": "2016-01-14", "type": "ESTIMATED"}, "lastUpdateSubmitDate": "2018-08-02", "lastUpdatePostDateStruct": {"date": "2018-08-06", "type": "ACTUAL"}}, "sponsorCollaboratorsModule": {"responsibleParty": {"type": "SPONSOR"}, "leadSponsor": {"name": "GlaxoSmithKline", "class": "INDUSTRY"}, "collaborators": [{"name": "Parexel", "class": "INDUSTRY"}]}, "oversightModule": {"oversightHasDmc": true}, "descriptionModule": {"briefSummary": "The purpose of this study is to assess whether the risk of serious asthma-related events (asthma-related hospitalizations, endotracheal intubations, and deaths) in adolescents and adults (12 years of age and older) taking inhaled fluticasone propionate/salmeterol combination is the same as those taking inhaled fluticasone propionate alone.\n\nADVAIR\u2122 and FLOVENT\u2122 are trademarks of the GlaxoSmithKline Group of Companies.", "detailedDescription": "Progress of Enrollment, Updated Annually: This study has been completed and the final clinical study report was submitted to the FDA in January of 2016. This is the final update, as this study is complete."}, "conditionsModule": {"conditions": ["Asthma"], "keywords": ["ADVAIR", "Asthma", "safety", "FLOVENT"]}, "designModule": {"studyType": "INTERVENTIONAL", "phases": ["PHASE4"], "designInfo": {"allocation": "RANDOMIZED", "interventionModel": "PARALLEL", "primaryPurpose": "TREATMENT", "maskingInfo": {"masking": "TRIPLE", "whoMasked": ["PARTICIPANT", "CARE_PROVIDER", "INVESTIGATOR"]}}, "enrollmentInfo": {"count": 11751, "type": "ACTUAL"}}, "armsInterventionsModule": {"armGroups": [{"label": "ADVAIR 100/50mcg", "type": "EXPERIMENTAL", "description": "experimental drug", "interventionNames": ["Drug: ADVAIR 100/50mcg"]}, {"label": "ADVAIR 250/50mcg", "type": "EXPERIMENTAL", "description": "experimental drug", "interventionNames": ["Drug: ADVAIR 250/50mcg"]}, {"label": "ADVAIR 500/50mcg", "type": "EXPERIMENTAL", "description": "experimental drug", "interventionNames": ["Drug: ADVAIR 500/50mcg"]}, {"label": "FLOVENT 100mcg", "type": "ACTIVE_COMPARATOR", "description": "active comparator", "interventionNames": ["Drug: FLOVENT 100mcg"]}, {"label": "FLOVENT 250mcg", "type": "ACTIVE_COMPARATOR", "description": "active comparator", "interventionNames": ["Drug: FLOVENT 250mcg"]}, {"label": "FLOVENT 500mcg", "type": "ACTIVE_COMPARATOR", "description": "active comparator", "interventionNames": ["Drug: FLOVENT 500mcg"]}], "interventions": [{"type": "DRUG", "name": "ADVAIR 100/50mcg", "description": "fluticasone propionate/salmeterol combination (100/50mcg) twice daily (AM and PM) for 6 months", "armGroupLabels": ["ADVAIR 100/50mcg"], "otherNames": ["FSC 100/50"]}, {"type": "DRUG", "name": "ADVAIR 250/50mcg", "description": "fluticasone propionate/salmeterol combination (250/50mcg) twice daily (AM and PM) for 6 months", "armGroupLabels": ["ADVAIR 250/50mcg"], "otherNames": ["FSC 250/50"]}, {"type": "DRUG", "name": "ADVAIR 500/50mcg", "description": "fluticasone propionate/salmeterol combination (500/50mcg) twice daily (AM and PM) for 6 months", "armGroupLabels": ["ADVAIR 500/50mcg"], "otherNames": ["FSC 500/50"]}, {"type": "DRUG", "name": "FLOVENT 100mcg", "description": "fluticasone propionate (100) twice daily (AM and PM) for 6 months", "armGroupLabels": ["FLOVENT 100mcg"], "otherNames": ["FP 100"]}, {"type": "DRUG", "name": "FLOVENT 250mcg", "description": "fluticasone propionate (250mcg) twice daily (AM and PM) for 6 months", "armGroupLabels": ["FLOVENT 250mcg"], "otherNames": ["FP 250"]}, {"type": "DRUG", "name": "FLOVENT 500mcg", "description": "fluticasone propionate (500mcg) twice daily (AM and PM) for 6 months", "armGroupLabels": ["FLOVENT 500mcg"], "otherNames": ["FP 500"]}]}, "outcomesModule": {"primaryOutcomes": [{"measure": "Number of Participants Experiencing an Event in the Composite Safety Endpoint of Serious Asthma Outcomes ( Asthma-related Hospitalization, Asthma-related Endotracheal Intubation, or Asthma-related Death)", "description": "Composite endpoint was defined as clinically relevant endpoint that is constructed from combinations of other clinically relevant endpoints of serious asthma outcomes (i.e., asthma-related hospitalization, asthma-related endotracheal intubation, or asthma-related death). Hospitalization was defined as an inpatient stay or a \u226524-hour stay in an observation area in an emergency department or other equivalent facility. Probability of having event was summarized with Kaplan-Meier estimates.Hazard ratio, confidence interval, and p-value are from a stratified Cox proportional hazard model, using randomization stratum as the stratification factor. The 95% CI provided in the table is actually the 95.", "timeFrame": "From Day 1 up to 26 weeks"}, {"measure": "Number of Participants Experiencing at Least One Asthma Exacerbation", "description": "An asthma exacerbation is defined as a deterioration of asthma requiring the use of systemic corticosteroids (tablets, suspension, or injection) for at least three days or an inpatient hospitalization or emergency department visit due to asthma that required systemic corticosteroids.", "timeFrame": "From Day 1 up to 26 weeks"}], "secondaryOutcomes": [{"measure": "Number of Participants Experiencing at Least One Asthma Related Hospitalization , Endotracheal Intubation and Death", "description": "Hospitalization was defined as an inpatient stay or a \u226524-hour stay in an observation area in an emergency department or other equivalent facility.", "timeFrame": "From Day 1 up to 26 weeks"}, {"measure": "Number of Participant Withdrawals From Study Treatment Due to Asthma Exacerbation", "description": "An asthma exacerbation is defined as a deterioration of asthma requiring the use of systemic corticosteroids (tablets, suspension, or injection) for at least three days or an inpatient hospitalization or emergency department visit due to asthma that required systemic corticosteroids.", "timeFrame": "From Day 1 up to 26 weeks"}, {"measure": "Mean Rescue Medication (Albuterol/Salbutamol) Use as Puffs Per 24 Hours", "description": "Rescue medication included albuterol/salbutamol used to treat acute asthma were reported as puffs per 24 hours over a period of 6 months.", "timeFrame": "From Day 1 up to 26 weeks"}]}, "eligibilityModule": {"eligibilityCriteria": "Inclusion Criteria:\n\n* Provided consent to participate in the study\n* Male or female, 12 years of age and older\n* Clinical diagnosis of asthma for at least 1 year prior to the randomization\n* Clinic PEF of greater than or equal to 50% of predicted normal value\n* Subject must be appropriately using one of the treatments for asthma listed in the protocol\n* Subject must be able to complete the asthma control questionnaire, daily questions about asthma, and use a DISKUS inhaler\n* Subject must have history of at least 1 asthma exacerbation including one of the following in the year prior to randomization:\n* requiring treatment with systemic corticosteroids\n* an asthma-related hospitalization\n\nExclusion Criteria:\n\n* History of life threatening asthma defined for this protocol as asthma episode that required intubation and/or was associated with hypercapnea requiring non-invasive ventilatory support\n* Concurrent respiratory disease other than asthma\n* Current evidence of, or ever been told by a physician that they have chronic bronchitis, emphysema, or chronic obstructive pulmonary disease.\n* Exercise induced asthma (as the only asthma-related diagnosis) not requiring daily asthma control medicine\n* Presence of a bacterial or viral respiratory infection that is not resolved at randomization\n* An asthma exacerbation requiring systemic corticosteriods within 4 weeks of randomization or more than 4 separate exacerbations in the 12 months preceding randomization\n* More than 2 hospitalizations for treatment of asthma in the 12 months preceding randomization\n* Subject must not meet unstable asthma severity criteria as listed in the protocol\n* Potent cytochrome P450 3A4 (CYP3A4) inhibitors within the last 4 weeks (e.g., ritonavir, ketoconazole, itraconzole)\n* Pregnancy, breast-feeding or planned pregnancy during the study\n* A Child in Care (CiC) is a child who has been placed under the control or protection of an agency, organisation, institution or entity by the courts, the government or a government body, acting in accordance with powers conferred on them by law or regulation.", "healthyVolunteers": false, "sex": "ALL", "minimumAge": "12 Years", "stdAges": ["CHILD", "ADULT", "OLDER_ADULT"]}, "contactsLocationsModule": {"overallOfficials": [{"name": "GSK Clinical Trials", "affiliation": "GlaxoSmithKline", "role": "STUDY_DIRECTOR"}], "locations": [{"facility": "GSK Investigational Site", "city": "Athens", "state": "Alabama", "zip": "35611", "country": "United States", "geoPoint": {"lat": 34.80243, "lon": -86.97219}}, {"facility": "GSK Investigational Site", "city": "Birmingham", "state": "Alabama", "zip": "35209", "country": "United States", "geoPoint": {"lat": 33.52066, "lon": -86.80249}}, {"facility": "GSK Investigational Site", "city": "Birmingham", "state": "Alabama", "zip": "35216", "country": "United States", "geoPoint": {"lat": 33.52066, "lon": -86.80249}}, {"facility": "GSK Investigational Site", "city": "Birmingham", "state": "Alabama", "zip": "35233", "country": "United States", "geoPoint": {"lat": 33.52066, "lon": -86.80249}}, {"facility": "GSK Investigational Site", "city": "Florence", "state": "Alabama", "zip": "35630", "country": "United States", "geoPoint": {"lat": 34.79981, "lon": -87.67725}}, {"facility": "GSK Investigational Site", "city": "Mobile", "state": "Alabama", "zip": "36608", "country": "United States", "geoPoint": {"lat": 30.69436, "lon": -88.04305}}, {"facility": "GSK Investigational Site", "city": "Montgomery", "state": "Alabama", "zip": "36109", "country": "United States", "geoPoint": {"lat": 32.36681, "lon": -86.29997}}, {"facility": "GSK Investigational Site", "city": "Pell City", "state": "Alabama", "zip": "35128", "country": "United States", "geoPoint": {"lat": 33.58621, "lon": -86.28609}}, {"facility": "GSK Investigational Site", "city": "Scottsboro", "state": "Alabama", "zip": "35768", "country": "United States", "geoPoint": {"lat": 34.67231, "lon": -86.03415}}, {"facility": "GSK Investigational Site", "city": "Toney", "state": "Alabama", "zip": "35773", "country": "United States", "geoPoint": {"lat": 34.89814, "lon": -86.73361}}, {"facility": "GSK Investigational Site", "city": "Tuscaloosa", "state": "Alabama", "zip": "35401", "country": "United States", "geoPoint": {"lat": 33.20984, "lon": -87.56917}}, {"facility": "GSK Investigational Site", "city": "Chandler", "state": "Arizona", "zip": "85224", "country": "United States", "geoPoint": {"lat": 33.30616, "lon": -111.84125}}, {"facility": "GSK Investigational Site", "city": "Flagstaff", "state": "Arizona", "zip": "86001", "country": "United States", "geoPoint": {"lat": 35.19807, "lon": -111.65127}}, {"facility": "GSK Investigational Site", "city": "Goodyear", "state": "Arizona", "zip": "85395", "country": "United States", "geoPoint": {"lat": 33.43532, "lon": -112.35821}}, {"facility": "GSK Investigational Site", "city": "Green Valley", "state": "Arizona", "zip": "85614", "country": "United States", "geoPoint": {"lat": 31.85425, "lon": -110.9937}}, {"facility": "GSK Investigational Site", "city": "Mesa", "state": "Arizona", "zip": "85203", "country": "United States", "geoPoint": {"lat": 33.42227, "lon": -111.82264}}, {"facility": "GSK Investigational Site", "city": "Mesa", "state": "Arizona", "zip": "85206", "country": "United States", "geoPoint": {"lat": 33.42227, "lon": -111.82264}}, {"facility": "GSK Investigational Site", "city": "Peoria", "state": "Arizona", "zip": "85381", "country": "United States", "geoPoint": {"lat": 33.5806, "lon": -112.23738}}, {"facility": "GSK Investigational Site", "city": "Phoenix", "state": "Arizona", "zip": "85023", "country": "United States", "geoPoint": {"lat": 33.44838, "lon": -112.07404}}, {"facility": "GSK Investigational Site", "city": "Phoenix", "state": "Arizona", "zip": "85050", "country": "United States", "geoPoint": {"lat": 33.44838, "lon": -112.07404}}, {"facility": "GSK Investigational Site", "city": "Phoenix", "state": "Arizona", "zip": "85051", "country": "United States", "geoPoint": {"lat": 33.44838, "lon": -112.07404}}, {"facility": "GSK Investigational Site", "city": "Phoenix", "state": "Arizona", "zip": "92120-4915", "country": "United States", "geoPoint": {"lat": 33.44838, "lon": -112.07404}}, {"facility": "GSK Investigational Site", "city": "Scottsdale", "state": "Arizona", "zip": "85255", "country": "United States", "geoPoint": {"lat": 33.50921, "lon": -111.89903}}, {"facility": "GSK Investigational Site", "city": "Sierra Vista", "state": "Arizona", "zip": "85635", "country": "United States", "geoPoint": {"lat": 31.55454, "lon": -110.30369}}, {"facility": "GSK Investigational Site", "city": "Tucson", "state": "Arizona", "zip": "85704", "country": "United States", "geoPoint": {"lat": 32.22174, "lon": -110.92648}}, {"facility": "GSK Investigational Site", "city": "Anaheim", "state": "California", "zip": "92801", "country": "United States", "geoPoint": {"lat": 33.83529, "lon": -117.9145}}, {"facility": "GSK Investigational Site", "city": "Anaheim", "state": "California", "zip": "92804", "country": "United States", "geoPoint": {"lat": 33.83529, "lon": -117.9145}}, {"facility": "GSK Investigational Site", "city": "Bakersfield", "state": "California", "zip": "93301", "country": "United States", "geoPoint": {"lat": 35.37329, "lon": -119.01871}}, {"facility": "GSK Investigational Site", "city": "Dinuba", "state": "California", "zip": "93618", "country": "United States", "geoPoint": {"lat": 36.54328, "lon": -119.38707}}, {"facility": "GSK Investigational Site", "city": "Fresno", "state": "California", "zip": "93720", "country": "United States", "geoPoint": {"lat": 36.74773, "lon": -119.77237}}, {"facility": "GSK Investigational Site", "city": "Granada Hills", "state": "California", "zip": "91344", "country": "United States", "geoPoint": {"lat": 34.26472, "lon": -118.52314}}, {"facility": "GSK Investigational Site", "city": "Harbor City", "state": "California", "zip": "90710", "country": "United States", "geoPoint": {"lat": 33.79002, "lon": -118.29785}}, {"facility": "GSK Investigational Site", "city": "Huntington Beach", "state": "California", "zip": "92647", "country": "United States", "geoPoint": {"lat": 33.6603, "lon": -117.99923}}, {"facility": "GSK Investigational Site", "city": "Huntington Park", "state": "California", "zip": "90255", "country": "United States", "geoPoint": {"lat": 33.98168, "lon": -118.22507}}, {"facility": "GSK Investigational Site", "city": "Lomita", "state": "California", "zip": "90717", "country": "United States", "geoPoint": {"lat": 33.79224, "lon": -118.31507}}, {"facility": "GSK Investigational Site", "city": "Long Beach", "state": "California", "zip": "90806", "country": "United States", "geoPoint": {"lat": 33.76696, "lon": -118.18923}}, {"facility": "GSK Investigational Site", "city": "Long Beach", "state": "California", "zip": "90807", "country": "United States", "geoPoint": {"lat": 33.76696, "lon": -118.18923}}, {"facility": "GSK Investigational Site", "city": "Long Beach", "state": "California", "zip": "90813", "country": "United States", "geoPoint": {"lat": 33.76696, "lon": -118.18923}}, {"facility": "GSK Investigational Site", "city": "Los Angeles", "state": "California", "zip": "90057", "country": "United States", "geoPoint": {"lat": 34.05223, "lon": -118.24368}}, {"facility": "GSK Investigational Site", "city": "Los Angeles", "state": "California", "zip": "90095", "country": "United States", "geoPoint": {"lat": 34.05223, "lon": -118.24368}}, {"facility": "GSK Investigational Site", "city": "Napa", "state": "California", "zip": "94558", "country": "United States", "geoPoint": {"lat": 38.29714, "lon": -122.28553}}, {"facility": "GSK Investigational Site", "city": "Newport Beach", "state": "California", "zip": "92663", "country": "United States", "geoPoint": {"lat": 33.61891, "lon": -117.92895}}, {"facility": "GSK Investigational Site", "city": "Oxnard", "state": "California", "zip": "93030", "country": "United States", "geoPoint": {"lat": 34.1975, "lon": -119.17705}}, {"facility": "GSK Investigational Site", "city": "Paramount", "state": "California", "zip": "90723", "country": "United States", "geoPoint": {"lat": 33.88946, "lon": -118.15979}}, {"facility": "GSK Investigational Site", "city": "Pismo Beach", "state": "California", "zip": "93449", "country": "United States", "geoPoint": {"lat": 35.14275, "lon": -120.64128}}, {"facility": "GSK Investigational Site", "city": "Pomona", "state": "California", "zip": "91767", "country": "United States", "geoPoint": {"lat": 34.05529, "lon": -117.75228}}, {"facility": "GSK Investigational Site", "city": "Rolling Hills Estates", "state": "California", "zip": "90274", "country": "United States", "geoPoint": {"lat": 33.78779, "lon": -118.35813}}, {"facility": "GSK Investigational Site", "city": "Roseville", "state": "California", "zip": "95678", "country": "United States", "geoPoint": {"lat": 38.75212, "lon": -121.28801}}, {"facility": "GSK Investigational Site", "city": "Sacramento", "state": "California", "zip": "95823", "country": "United States", "geoPoint": {"lat": 38.58157, "lon": -121.4944}}, {"facility": "GSK Investigational Site", "city": "Sacramento", "state": "California", "zip": "95841", "country": "United States", "geoPoint": {"lat": 38.58157, "lon": -121.4944}}, {"facility": "GSK Investigational Site", "city": "San Gabriel", "state": "California", "zip": "91776", "country": "United States", "geoPoint": {"lat": 34.09611, "lon": -118.10583}}, {"facility": "GSK Investigational Site", "city": "San Jose", "state": "California", "zip": "95116", "country": "United States", "geoPoint": {"lat": 37.33939, "lon": -121.89496}}, {"facility": "GSK Investigational Site", "city": "San Marcos", "state": "California", "zip": "92078-4081", "country": "United States", "geoPoint": {"lat": 33.14337, "lon": -117.16614}}, {"facility": "GSK Investigational Site", "city": "San Marino", "state": "California", "zip": "91108", "country": "United States", "geoPoint": {"lat": 34.1214, "lon": -118.10646}}, {"facility": "GSK Investigational Site", "city": "San Ramon", "state": "California", "zip": "94583", "country": "United States", "geoPoint": {"lat": 37.77993, "lon": -121.97802}}, {"facility": "GSK Investigational Site", "city": "Santa Monica", "state": "California", "zip": "90404", "country": "United States", "geoPoint": {"lat": 34.01945, "lon": -118.49119}}, {"facility": "GSK Investigational Site", "city": "Ventura", "state": "California", "zip": "93003", "country": "United States", "geoPoint": {"lat": 34.27834, "lon": -119.29317}}, {"facility": "GSK Investigational Site", "city": "Vista", "state": "California", "zip": "92083", "country": "United States", "geoPoint": {"lat": 33.20004, "lon": -117.24254}}, {"facility": "GSK Investigational Site", "city": "West Covina", "state": "California", "zip": "91790", "country": "United States", "geoPoint": {"lat": 34.06862, "lon": -117.93895}}, {"facility": "GSK Investigational Site", "city": "West Sacramento", "state": "California", "zip": "95691", "country": "United States", "geoPoint": {"lat": 38.58046, "lon": -121.53023}}, {"facility": "GSK Investigational Site", "city": "Colorado Springs", "state": "Colorado", "zip": "80906", "country": "United States", "geoPoint": {"lat": 38.83388, "lon": -104.82136}}, {"facility": "GSK Investigational Site", "city": "Colorado Springs", "state": "Colorado", "zip": "80907", "country": "United States", "geoPoint": {"lat": 38.83388, "lon": -104.82136}}, {"facility": "GSK Investigational Site", "city": "Colorado Springs", "state": "Colorado", "zip": "80909", "country": "United States", "geoPoint": {"lat": 38.83388, "lon": -104.82136}}, {"facility": "GSK Investigational Site", "city": "Colorado Springs", "state": "Colorado", "zip": "80922", "country": "United States", "geoPoint": {"lat": 38.83388, "lon": -104.82136}}, {"facility": "GSK Investigational Site", "city": "Denver", "state": "Colorado", "zip": "80206", "country": "United States", "geoPoint": {"lat": 39.73915, "lon": -104.9847}}, {"facility": "GSK Investigational Site", "city": "Fort Collins", "state": "Colorado", "zip": "80538", "country": "United States", "geoPoint": {"lat": 40.58526, "lon": -105.08442}}, {"facility": "GSK Investigational Site", "city": "Golden", "state": "Colorado", "zip": "80401", "country": "United States", "geoPoint": {"lat": 39.75554, "lon": -105.2211}}, {"facility": "GSK Investigational Site", "city": "Thornton", "state": "Colorado", "zip": "80233", "country": "United States", "geoPoint": {"lat": 39.86804, "lon": -104.97192}}, {"facility": "GSK Investigational Site", "city": "Wheat Ridge", "state": "Colorado", "zip": "80033", "country": "United States", "geoPoint": {"lat": 39.7661, "lon": -105.07721}}, {"facility": "GSK Investigational Site", "city": "Danbury", "state": "Connecticut", "zip": "06810", "country": "United States", "geoPoint": {"lat": 41.39482, "lon": -73.45401}}, {"facility": "GSK Investigational Site", "city": "Milford", "state": "Connecticut", "zip": "06460", "country": "United States", "geoPoint": {"lat": 41.22232, "lon": -73.0565}}, {"facility": "GSK Investigational Site", "city": "Waterbury", "state": "Connecticut", "zip": "06708", "country": "United States", "geoPoint": {"lat": 41.55815, "lon": -73.0515}}, {"facility": "GSK Investigational Site", "city": "Washington", "state": "District of Columbia", "zip": "20037", "country": "United States", "geoPoint": {"lat": 38.89511, "lon": -77.03637}}, {"facility": "GSK Investigational Site", "city": "Boynton Beach", "state": "Florida", "zip": "33437", "country": "United States", "geoPoint": {"lat": 26.52535, "lon": -80.06643}}, {"facility": "GSK Investigational Site", "city": "Brandon", "state": "Florida", "zip": "33511", "country": "United States", "geoPoint": {"lat": 27.9378, "lon": -82.28592}}, {"facility": "GSK Investigational Site", "city": "Clearwater", "state": "Florida", "zip": "33756", "country": "United States", "geoPoint": {"lat": 27.96585, "lon": -82.8001}}, {"facility": "GSK Investigational Site", "city": "Clearwater", "state": "Florida", "zip": "33759", "country": "United States", "geoPoint": {"lat": 27.96585, "lon": -82.8001}}, {"facility": "GSK Investigational Site", "city": "Cocoa", "state": "Florida", "zip": "32927", "country": "United States", "geoPoint": {"lat": 28.38612, "lon": -80.742}}, {"facility": "GSK Investigational Site", "city": "Coral Gables", "state": "Florida", "zip": "33134", "country": "United States", "geoPoint": {"lat": 25.72149, "lon": -80.26838}}, {"facility": "GSK Investigational Site", "city": "Destin", "state": "Florida", "zip": "32541", "country": "United States", "geoPoint": {"lat": 30.39353, "lon": -86.49578}}, {"facility": "GSK Investigational Site", "city": "Doral", "state": "Florida", "zip": "33166", "country": "United States", "geoPoint": {"lat": 25.81954, "lon": -80.35533}}, {"facility": "GSK Investigational Site", "city": "Doral", "state": "Florida", "zip": "33172", "country": "United States", "geoPoint": {"lat": 25.81954, "lon": -80.35533}}, {"facility": "GSK Investigational Site", "city": "Fort Lauderdale", "state": "Florida", "zip": "33316", "country": "United States", "geoPoint": {"lat": 26.12231, "lon": -80.14338}}, {"facility": "GSK Investigational Site", "city": "Hialeah", "state": "Florida", "zip": "33016", "country": "United States", "geoPoint": {"lat": 25.8576, "lon": -80.27811}}, {"facility": "GSK Investigational Site", "city": "Jacksonville", "state": "Florida", "zip": "32205", "country": "United States", "geoPoint": {"lat": 30.33218, "lon": -81.65565}}, {"facility": "GSK Investigational Site", "city": "Jupiter", "state": "Florida", "zip": "33458", "country": "United States", "geoPoint": {"lat": 26.93422, "lon": -80.09421}}, {"facility": "GSK Investigational Site", "city": "Maitland", "state": "Florida", "zip": "32751", "country": "United States", "geoPoint": {"lat": 28.62778, "lon": -81.36312}}, {"facility": "GSK Investigational Site", "city": "Melbourne", "state": "Florida", "zip": "32935", "country": "United States", "geoPoint": {"lat": 28.08363, "lon": -80.60811}}, {"facility": "GSK Investigational Site", "city": "Miami", "state": "Florida", "zip": "33015", "country": "United States", "geoPoint": {"lat": 25.77427, "lon": -80.19366}}, {"facility": "GSK Investigational Site", "city": "Miami", "state": "Florida", "zip": "33125", "country": "United States", "geoPoint": {"lat": 25.77427, "lon": -80.19366}}, {"facility": "GSK Investigational Site", "city": "Miami", "state": "Florida", "zip": "33126", "country": "United States", "geoPoint": {"lat": 25.77427, "lon": -80.19366}}, {"facility": "GSK Investigational Site", "city": "Miami", "state": "Florida", "zip": "33155", "country": "United States", "geoPoint": {"lat": 25.77427, "lon": -80.19366}}, {"facility": "GSK Investigational Site", "city": "Miami", "state": "Florida", "zip": "33156", "country": "United States", "geoPoint": {"lat": 25.77427, "lon": -80.19366}}, {"facility": "GSK Investigational Site", "city": "Miami", "state": "Florida", "zip": "33165", "country": "United States", "geoPoint": {"lat": 25.77427, "lon": -80.19366}}, {"facility": "GSK Investigational Site", "city": "Miami", "state": "Florida", "zip": "33175", "country": "United States", "geoPoint": {"lat": 25.77427, "lon": -80.19366}}, {"facility": "GSK Investigational Site", "city": "New Port Richey", "state": "Florida", "zip": "34652", "country": "United States", "geoPoint": {"lat": 28.24418, "lon": -82.71927}}, {"facility": "GSK Investigational Site", "city": "Orlando", "state": "Florida", "zip": "32806", "country": "United States", "geoPoint": {"lat": 28.53834, "lon": -81.37924}}, {"facility": "GSK Investigational Site", "city": "Orlando", "state": "Florida", "zip": "32811", "country": "United States", "geoPoint": {"lat": 28.53834, "lon": -81.37924}}, {"facility": "GSK Investigational Site", "city": "Orlando", "state": "Florida", "zip": "32822", "country": "United States", "geoPoint": {"lat": 28.53834, "lon": -81.37924}}, {"facility": "GSK Investigational Site", "city": "Pensacola", "state": "Florida", "zip": "32514", "country": "United States", "geoPoint": {"lat": 30.42131, "lon": -87.21691}}, {"facility": "GSK Investigational Site", "city": "Pinellas Park", "state": "Florida", "zip": "33781", "country": "United States", "geoPoint": {"lat": 27.8428, "lon": -82.69954}}, {"facility": "GSK Investigational Site", "city": "Saint Cloud", "state": "Florida", "zip": "34769", "country": "United States", "geoPoint": {"lat": 28.2489, "lon": -81.28118}}, {"facility": "GSK Investigational Site", "city": "Saint Petersburg", "state": "Florida", "zip": "33707", "country": "United States", "geoPoint": {"lat": 27.77086, "lon": -82.67927}}, {"facility": "GSK Investigational Site", "city": "Saint Petersburg", "state": "Florida", "zip": "33710", "country": "United States", "geoPoint": {"lat": 27.77086, "lon": -82.67927}}, {"facility": "GSK Investigational Site", "city": "Sarasota", "state": "Florida", "zip": "34233", "country": "United States", "geoPoint": {"lat": 27.33643, "lon": -82.53065}}, {"facility": "GSK Investigational Site", "city": "Tallahassee", "state": "Florida", "zip": "32308", "country": "United States", "geoPoint": {"lat": 30.43826, "lon": -84.28073}}, {"facility": "GSK Investigational Site", "city": "Tampa", "state": "Florida", "zip": "33606", "country": "United States", "geoPoint": {"lat": 27.94752, "lon": -82.45843}}, {"facility": "GSK Investigational Site", "city": "Tampa", "state": "Florida", "zip": "33607", "country": "United States", "geoPoint": {"lat": 27.94752, "lon": -82.45843}}, {"facility": "GSK Investigational Site", "city": "Tampa", "state": "Florida", "zip": "33613", "country": "United States", "geoPoint": {"lat": 27.94752, "lon": -82.45843}}, {"facility": "GSK Investigational Site", "city": "Tampa", "state": "Florida", "zip": "33614", "country": "United States", "geoPoint": {"lat": 27.94752, "lon": -82.45843}}, {"facility": "GSK Investigational Site", "city": "Trinity", "state": "Florida", "zip": "34655", "country": "United States", "geoPoint": {"lat": 28.18085, "lon": -82.68177}}, {"facility": "GSK Investigational Site", "city": "Vero Beach", "state": "Florida", "zip": "32960", "country": "United States", "geoPoint": {"lat": 27.63864, "lon": -80.39727}}, {"facility": "GSK Investigational Site", "city": "Wellington", "state": "Florida", "zip": "33414", "country": "United States", "geoPoint": {"lat": 26.65868, "lon": -80.24144}}, {"facility": "GSK Investigational Site", "city": "Zephyrhills", "state": "Florida", "zip": "33540", "country": "United States", "geoPoint": {"lat": 28.23362, "lon": -82.18119}}, {"facility": "GSK Investigational Site", "city": "Austell", "state": "Georgia", "zip": "30106", "country": "United States", "geoPoint": {"lat": 33.81261, "lon": -84.63438}}, {"facility": "GSK Investigational Site", "city": "Columbus", "state": "Georgia", "zip": "31904", "country": "United States", "geoPoint": {"lat": 32.46098, "lon": -84.98771}}, {"facility": "GSK Investigational Site", "city": "Decatur", "state": "Georgia", "zip": "30033", "country": "United States", "geoPoint": {"lat": 33.77483, "lon": -84.29631}}, {"facility": "GSK Investigational Site", "city": "Gainesville", "state": "Georgia", "zip": "30501", "country": "United States", "geoPoint": {"lat": 34.29788, "lon": -83.82407}}, {"facility": "GSK Investigational Site", "city": "Lawrenceville", "state": "Georgia", "zip": "30045", "country": "United States", "geoPoint": {"lat": 33.95621, "lon": -83.98796}}, {"facility": "GSK Investigational Site", "city": "Lilburn", "state": "Georgia", "zip": "30047", "country": "United States", "geoPoint": {"lat": 33.8901, "lon": -84.14297}}, {"facility": "GSK Investigational Site", "city": "Rincon", "state": "Georgia", "zip": "31326", "country": "United States", "geoPoint": {"lat": 32.29603, "lon": -81.23539}}, {"facility": "GSK Investigational Site", "city": "Stockbridge", "state": "Georgia", "zip": "30281", "country": "United States", "geoPoint": {"lat": 33.54428, "lon": -84.23381}}, {"facility": "GSK Investigational Site", "city": "Tucker", "state": "Georgia", "zip": "30084", "country": "United States", "geoPoint": {"lat": 33.85455, "lon": -84.21714}}, {"facility": "GSK Investigational Site", "city": "Champaign", "state": "Illinois", "zip": "61820", "country": "United States", "geoPoint": {"lat": 40.11642, "lon": -88.24338}}, {"facility": "GSK Investigational Site", "city": "Evergreen Park", "state": "Illinois", "zip": "60805", "country": "United States", "geoPoint": {"lat": 41.72059, "lon": -87.70172}}, {"facility": "GSK Investigational Site", "city": "Glen Ellyn", "state": "Illinois", "zip": "60137", "country": "United States", "geoPoint": {"lat": 41.87753, "lon": -88.06701}}, {"facility": "GSK Investigational Site", "city": "Glenview", "state": "Illinois", "zip": "60025", "country": "United States", "geoPoint": {"lat": 42.06975, "lon": -87.78784}}, {"facility": "GSK Investigational Site", "city": "Normal", "state": "Illinois", "zip": "61761", "country": "United States", "geoPoint": {"lat": 40.5142, "lon": -88.99063}}, {"facility": "GSK Investigational Site", "city": "Oak Lawn", "state": "Illinois", "zip": "60453", "country": "United States", "geoPoint": {"lat": 41.71087, "lon": -87.75811}}, {"facility": "GSK Investigational Site", "city": "Oak Park", "state": "Illinois", "zip": "60302", "country": "United States", "geoPoint": {"lat": 41.88503, "lon": -87.7845}}, {"facility": "GSK Investigational Site", "city": "Shiloh", "state": "Illinois", "zip": "62269", "country": "United States", "geoPoint": {"lat": 38.56144, "lon": -89.89732}}, {"facility": "GSK Investigational Site", "city": "Avon", "state": "Indiana", "zip": "46123", "country": "United States", "geoPoint": {"lat": 39.76282, "lon": -86.39972}}, {"facility": "GSK Investigational Site", "city": "Brownsburg", "state": "Indiana", "zip": "46112", "country": "United States", "geoPoint": {"lat": 39.84338, "lon": -86.39777}}, {"facility": "GSK Investigational Site", "city": "Crown Point", "state": "Indiana", "zip": "46307", "country": "United States", "geoPoint": {"lat": 41.41698, "lon": -87.36531}}, {"facility": "GSK Investigational Site", "city": "Franklin", "state": "Indiana", "zip": "46131", "country": "United States", "geoPoint": {"lat": 39.48061, "lon": -86.05499}}, {"facility": "GSK Investigational Site", "city": "Greenfield", "state": "Indiana", "zip": "46140", "country": "United States", "geoPoint": {"lat": 39.78504, "lon": -85.76942}}, {"facility": "GSK Investigational Site", "city": "Indianapolis", "state": "Indiana", "zip": "46208", "country": "United States", "geoPoint": {"lat": 39.76838, "lon": -86.15804}}, {"facility": "GSK Investigational Site", "city": "Indianapolis", "state": "Indiana", "zip": "46256", "country": "United States", "geoPoint": {"lat": 39.76838, "lon": -86.15804}}, {"facility": "GSK Investigational Site", "city": "Muncie", "state": "Indiana", "zip": "47304-5547", "country": "United States", "geoPoint": {"lat": 40.19338, "lon": -85.38636}}, {"facility": "GSK Investigational Site", "city": "Council Bluffs", "state": "Iowa", "zip": "51503", "country": "United States", "geoPoint": {"lat": 41.26194, "lon": -95.86083}}, {"facility": "GSK Investigational Site", "city": "Iowa City", "state": "Iowa", "zip": "52242", "country": "United States", "geoPoint": {"lat": 41.66113, "lon": -91.53017}}, {"facility": "GSK Investigational Site", "city": "West Des Moines", "state": "Iowa", "zip": "50265", "country": "United States", "geoPoint": {"lat": 41.57721, "lon": -93.71133}}, {"facility": "GSK Investigational Site", "city": "Hutchinson", "state": "Kansas", "zip": "67502", "country": "United States", "geoPoint": {"lat": 38.06084, "lon": -97.92977}}, {"facility": "GSK Investigational Site", "city": "Overland Park", "state": "Kansas", "zip": "66210", "country": "United States", "geoPoint": {"lat": 38.98223, "lon": -94.67079}}, {"facility": "GSK Investigational Site", "city": "Overland Park", "state": "Kansas", "zip": "66215", "country": "United States", "geoPoint": {"lat": 38.98223, "lon": -94.67079}}, {"facility": "GSK Investigational Site", "city": "Hazard", "state": "Kentucky", "zip": "41701", "country": "United States", "geoPoint": {"lat": 37.24954, "lon": -83.19323}}, {"facility": "GSK Investigational Site", "city": "Lexington", "state": "Kentucky", "zip": "40504", "country": "United States", "geoPoint": {"lat": 37.98869, "lon": -84.47772}}, {"facility": "GSK Investigational Site", "city": "Lexington", "state": "Kentucky", "zip": "40509", "country": "United States", "geoPoint": {"lat": 37.98869, "lon": -84.47772}}, {"facility": "GSK Investigational Site", "city": "Louisville", "state": "Kentucky", "zip": "40207", "country": "United States", "geoPoint": {"lat": 38.25424, "lon": -85.75941}}, {"facility": "GSK Investigational Site", "city": "Louisville", "state": "Kentucky", "zip": "40291", "country": "United States", "geoPoint": {"lat": 38.25424, "lon": -85.75941}}, {"facility": "GSK Investigational Site", "city": "Alexandria", "state": "Louisiana", "zip": "71301", "country": "United States", "geoPoint": {"lat": 31.31129, "lon": -92.44514}}, {"facility": "GSK Investigational Site", "city": "Covington", "state": "Louisiana", "zip": "70433", "country": "United States", "geoPoint": {"lat": 30.47549, "lon": -90.10042}}, {"facility": "GSK Investigational Site", "city": "Bangor", "state": "Maine", "zip": "04401", "country": "United States", "geoPoint": {"lat": 44.80118, "lon": -68.77781}}, {"facility": "GSK Investigational Site", "city": "Portland", "state": "Maine", "zip": "4101", "country": "United States", "geoPoint": {"lat": 43.66147, "lon": -70.25533}}, {"facility": "GSK Investigational Site", "city": "Annapolis", "state": "Maryland", "zip": "21401", "country": "United States", "geoPoint": {"lat": 38.97845, "lon": -76.49218}}, {"facility": "GSK Investigational Site", "city": "Baltimore", "state": "Maryland", "zip": "21224", "country": "United States", "geoPoint": {"lat": 39.29038, "lon": -76.61219}}, {"facility": "GSK Investigational Site", "city": "Columbia", "state": "Maryland", "zip": "21045", "country": "United States", "geoPoint": {"lat": 39.24038, "lon": -76.83942}}, {"facility": "GSK Investigational Site", "city": "Hollywood", "state": "Maryland", "zip": "20636", "country": "United States", "geoPoint": {"lat": 38.34596, "lon": -76.57162}}, {"facility": "GSK Investigational Site", "city": "Largo", "state": "Maryland", "zip": "20774", "country": "United States", "geoPoint": {"lat": 38.89761, "lon": -76.83025}}, {"facility": "GSK Investigational Site", "city": "Silver Spring", "state": "Maryland", "zip": "20910", "country": "United States", "geoPoint": {"lat": 38.99067, "lon": -77.02609}}, {"facility": "GSK Investigational Site", "city": "Towson", "state": "Maryland", "zip": "21204", "country": "United States", "geoPoint": {"lat": 39.4015, "lon": -76.60191}}, {"facility": "GSK Investigational Site", "city": "Wheaton", "state": "Maryland", "zip": "20902", "country": "United States", "geoPoint": {"lat": 39.03983, "lon": -77.05526}}, {"facility": "GSK Investigational Site", "city": "Fall River", "state": "Massachusetts", "zip": "02720", "country": "United States", "geoPoint": {"lat": 41.70149, "lon": -71.15505}}, {"facility": "GSK Investigational Site", "city": "Hyannis", "state": "Massachusetts", "zip": "02601", "country": "United States", "geoPoint": {"lat": 41.65289, "lon": -70.2828}}, {"facility": "GSK Investigational Site", "city": "Ann Arbor", "state": "Michigan", "zip": "48106", "country": "United States", "geoPoint": {"lat": 42.27756, "lon": -83.74088}}, {"facility": "GSK Investigational Site", "city": "Buckley", "state": "Michigan", "zip": "49620", "country": "United States", "geoPoint": {"lat": 44.50445, "lon": -85.67701}}, {"facility": "GSK Investigational Site", "city": "Chelsea", "state": "Michigan", "zip": "48118", "country": "United States", "geoPoint": {"lat": 42.31807, "lon": -84.02181}}, {"facility": "GSK Investigational Site", "city": "Chesterfield", "state": "Michigan", "zip": "48047", "country": "United States", "geoPoint": {"lat": 42.66281, "lon": -82.84242}}, {"facility": "GSK Investigational Site", "city": "Detroit", "state": "Michigan", "zip": "48221", "country": "United States", "geoPoint": {"lat": 42.33143, "lon": -83.04575}}, {"facility": "GSK Investigational Site", "city": "Detroit", "state": "Michigan", "zip": "48235", "country": "United States", "geoPoint": {"lat": 42.33143, "lon": -83.04575}}, {"facility": "GSK Investigational Site", "city": "Fenton", "state": "Michigan", "zip": "48430", "country": "United States", "geoPoint": {"lat": 42.79781, "lon": -83.70495}}, {"facility": "GSK Investigational Site", "city": "Interlochen", "state": "Michigan", "zip": "49643", "country": "United States", "geoPoint": {"lat": 44.64472, "lon": -85.7673}}, {"facility": "GSK Investigational Site", "city": "Kalamazoo", "state": "Michigan", "zip": "49009", "country": "United States", "geoPoint": {"lat": 42.29171, "lon": -85.58723}}, {"facility": "GSK Investigational Site", "city": "Niles", "state": "Michigan", "zip": "49120", "country": "United States", "geoPoint": {"lat": 41.82977, "lon": -86.25418}}, {"facility": "GSK Investigational Site", "city": "Novi", "state": "Michigan", "zip": "48375", "country": "United States", "geoPoint": {"lat": 42.48059, "lon": -83.47549}}, {"facility": "GSK Investigational Site", "city": "Stevensville", "state": "Michigan", "zip": "49127", "country": "United States", "geoPoint": {"lat": 42.01449, "lon": -86.51947}}, {"facility": "GSK Investigational Site", "city": "Chaska", "state": "Minnesota", "zip": "55318", "country": "United States", "geoPoint": {"lat": 44.78941, "lon": -93.60218}}, {"facility": "GSK Investigational Site", "city": "Minneapolis", "state": "Minnesota", "zip": "55440", "country": "United States", "geoPoint": {"lat": 44.97997, "lon": -93.26384}}, {"facility": "GSK Investigational Site", "city": "Port Gibson", "state": "Mississippi", "zip": "39150", "country": "United States", "geoPoint": {"lat": 31.96099, "lon": -90.98399}}, {"facility": "GSK Investigational Site", "city": "Kansas City", "state": "Missouri", "zip": "64114", "country": "United States", "geoPoint": {"lat": 39.09973, "lon": -94.57857}}, {"facility": "GSK Investigational Site", "city": "Kansas City", "state": "Missouri", "zip": "64138", "country": "United States", "geoPoint": {"lat": 39.09973, "lon": -94.57857}}, {"facility": "GSK Investigational Site", "city": "Billings", "state": "Montana", "zip": "59101", "country": "United States", "geoPoint": {"lat": 45.78329, "lon": -108.50069}}, {"facility": "GSK Investigational Site", "city": "Great Falls", "state": "Montana", "zip": "59405", "country": "United States", "geoPoint": {"lat": 47.50024, "lon": -111.30081}}, {"facility": "GSK Investigational Site", "city": "Bellevue", "state": "Nebraska", "zip": "68005", "country": "United States", "geoPoint": {"lat": 41.13667, "lon": -95.89084}}, {"facility": "GSK Investigational Site", "city": "Lincoln", "state": "Nebraska", "zip": "02865", "country": "United States", "geoPoint": {"lat": 40.8, "lon": -96.66696}}, {"facility": "GSK Investigational Site", "city": "Lincoln", "state": "Nebraska", "zip": "68512", "country": "United States", "geoPoint": {"lat": 40.8, "lon": -96.66696}}, {"facility": "GSK Investigational Site", "city": "Lincoln", "state": "Nebraska", "zip": "68516", "country": "United States", "geoPoint": {"lat": 40.8, "lon": -96.66696}}, {"facility": "GSK Investigational Site", "city": "Omaha", "state": "Nebraska", "zip": "68130", "country": "United States", "geoPoint": {"lat": 41.25626, "lon": -95.94043}}, {"facility": "GSK Investigational Site", "city": "Henderson", "state": "Nevada", "zip": "89014", "country": "United States", "geoPoint": {"lat": 36.0397, "lon": -114.98194}}, {"facility": "GSK Investigational Site", "city": "Las Vegas", "state": "Nevada", "zip": "89106", "country": "United States", "geoPoint": {"lat": 36.17497, "lon": -115.13722}}, {"facility": "GSK Investigational Site", "city": "Las Vegas", "state": "Nevada", "zip": "89107", "country": "United States", "geoPoint": {"lat": 36.17497, "lon": -115.13722}}, {"facility": "GSK Investigational Site", "city": "Las Vegas", "state": "Nevada", "zip": "89183", "country": "United States", "geoPoint": {"lat": 36.17497, "lon": -115.13722}}, {"facility": "GSK Investigational Site", "city": "Atco", "state": "New Jersey", "zip": "08004", "country": "United States", "geoPoint": {"lat": 39.76984, "lon": -74.88739}}, {"facility": "GSK Investigational Site", "city": "Brick", "state": "New Jersey", "zip": "08724", "country": "United States", "geoPoint": {"lat": 40.05928, "lon": -74.13708}}, {"facility": "GSK Investigational Site", "city": "Edison", "state": "New Jersey", "zip": "08817", "country": "United States", "geoPoint": {"lat": 40.51872, "lon": -74.4121}}, {"facility": "GSK Investigational Site", "city": "Edison", "state": "New Jersey", "zip": "08820", "country": "United States", "geoPoint": {"lat": 40.51872, "lon": -74.4121}}, {"facility": "GSK Investigational Site", "city": "Elizabeth", "state": "New Jersey", "zip": "07201", "country": "United States", "geoPoint": {"lat": 40.66399, "lon": -74.2107}}, {"facility": "GSK Investigational Site", "city": "Elizabeth", "state": "New Jersey", "zip": "07202", "country": "United States", "geoPoint": {"lat": 40.66399, "lon": -74.2107}}, {"facility": "GSK Investigational Site", "city": "Freehold", "state": "New Jersey", "zip": "07728", "country": "United States", "geoPoint": {"lat": 40.26011, "lon": -74.27376}}, {"facility": "GSK Investigational Site", "city": "Lumberton", "state": "New Jersey", "zip": "08048", "country": "United States", "geoPoint": {"lat": 39.96595, "lon": -74.80516}}, {"facility": "GSK Investigational Site", "city": "Marlton", "state": "New Jersey", "zip": "08053", "country": "United States", "geoPoint": {"lat": 39.89122, "lon": -74.92183}}, {"facility": "GSK Investigational Site", "city": "Ocean City", "state": "New Jersey", "zip": "07712", "country": "United States", "geoPoint": {"lat": 39.27762, "lon": -74.5746}}, {"facility": "GSK Investigational Site", "city": "Ridgewood", "state": "New Jersey", "zip": "07450", "country": "United States", "geoPoint": {"lat": 40.97926, "lon": -74.11653}}, {"facility": "GSK Investigational Site", "city": "Trenton", "state": "New Jersey", "zip": "08611", "country": "United States", "geoPoint": {"lat": 40.21705, "lon": -74.74294}}, {"facility": "GSK Investigational Site", "city": "Albuquerque", "state": "New Mexico", "zip": "87131", "country": "United States", "geoPoint": {"lat": 35.08449, "lon": -106.65114}}, {"facility": "GSK Investigational Site", "city": "Bronx", "state": "New York", "zip": "10457", "country": "United States", "geoPoint": {"lat": 40.84985, "lon": -73.86641}}, {"facility": "GSK Investigational Site", "city": "Brooklyn", "state": "New York", "zip": "11215", "country": "United States", "geoPoint": {"lat": 40.6501, "lon": -73.94958}}, {"facility": "GSK Investigational Site", "city": "Corning", "state": "New York", "zip": "14830", "country": "United States", "geoPoint": {"lat": 42.14285, "lon": -77.05469}}, {"facility": "GSK Investigational Site", "city": "Endwell", "state": "New York", "zip": "13760", "country": "United States", "geoPoint": {"lat": 42.11285, "lon": -76.02103}}, {"facility": "GSK Investigational Site", "city": "New Windsor", "state": "New York", "zip": "12553", "country": "United States", "geoPoint": {"lat": 41.47676, "lon": -74.02375}}, {"facility": "GSK Investigational Site", "city": "New York", "state": "New York", "zip": "10017", "country": "United States", "geoPoint": {"lat": 40.71427, "lon": -74.00597}}, {"facility": "GSK Investigational Site", "city": "New York", "state": "New York", "zip": "10022 11209", "country": "United States", "geoPoint": {"lat": 40.71427, "lon": -74.00597}}, {"facility": "GSK Investigational Site", "city": "Newburgh", "state": "New York", "zip": "12550", "country": "United States", "geoPoint": {"lat": 41.50343, "lon": -74.01042}}, {"facility": "GSK Investigational Site", "city": "Utica", "state": "New York", "zip": "13502", "country": "United States", "geoPoint": {"lat": 43.1009, "lon": -75.23266}}, {"facility": "GSK Investigational Site", "city": "Westfield", "state": "New York", "zip": "14787", "country": "United States", "geoPoint": {"lat": 42.32228, "lon": -79.5781}}, {"facility": "GSK Investigational Site", "city": "Asheboro", "state": "North Carolina", "zip": "27203", "country": "United States", "geoPoint": {"lat": 35.70791, "lon": -79.81364}}, {"facility": "GSK Investigational Site", "city": "Asheville", "state": "North Carolina", "zip": "28803", "country": "United States", "geoPoint": {"lat": 35.60095, "lon": -82.55402}}, {"facility": "GSK Investigational Site", "city": "Calabash", "state": "North Carolina", "zip": "28467", "country": "United States", "geoPoint": {"lat": 33.89073, "lon": -78.56834}}, {"facility": "GSK Investigational Site", "city": "Cary", "state": "North Carolina", "zip": "27518", "country": "United States", "geoPoint": {"lat": 35.79154, "lon": -78.78112}}, {"facility": "GSK Investigational Site", "city": "Charlotte", "state": "North Carolina", "zip": "28207", "country": "United States", "geoPoint": {"lat": 35.22709, "lon": -80.84313}}, {"facility": "GSK Investigational Site", "city": "Charlotte", "state": "North Carolina", "zip": "28209", "country": "United States", "geoPoint": {"lat": 35.22709, "lon": -80.84313}}, {"facility": "GSK Investigational Site", "city": "Clyde", "state": "North Carolina", "zip": "28721", "country": "United States", "geoPoint": {"lat": 35.53344, "lon": -82.91069}}, {"facility": "GSK Investigational Site", "city": "Lexington", "state": "North Carolina", "zip": "27295", "country": "United States", "geoPoint": {"lat": 35.82403, "lon": -80.25338}}, {"facility": "GSK Investigational Site", "city": "Morganton", "state": "North Carolina", "zip": "28655", "country": "United States", "geoPoint": {"lat": 35.74541, "lon": -81.68482}}, {"facility": "GSK Investigational Site", "city": "Shelby", "state": "North Carolina", "zip": "28152", "country": "United States", "geoPoint": {"lat": 35.29235, "lon": -81.53565}}, {"facility": "GSK Investigational Site", "city": "Tabor City", "state": "North Carolina", "zip": "28463", "country": "United States", "geoPoint": {"lat": 34.14878, "lon": -78.87669}}, {"facility": "GSK Investigational Site", "city": "Wilmington", "state": "North Carolina", "zip": "28401", "country": "United States", "geoPoint": {"lat": 34.22573, "lon": -77.94471}}, {"facility": "GSK Investigational Site", "city": "Fargo", "state": "North Dakota", "zip": "58103", "country": "United States", "geoPoint": {"lat": 46.87719, "lon": -96.7898}}, {"facility": "GSK Investigational Site", "city": "Fargo", "state": "North Dakota", "zip": "58104", "country": "United States", "geoPoint": {"lat": 46.87719, "lon": -96.7898}}, {"facility": "GSK Investigational Site", "city": "Centerville", "state": "Ohio", "zip": "45459", "country": "United States", "geoPoint": {"lat": 39.62839, "lon": -84.15938}}, {"facility": "GSK Investigational Site", "city": "Cincinnati", "state": "Ohio", "zip": "45231", "country": "United States", "geoPoint": {"lat": 39.12713, "lon": -84.51435}}, {"facility": "GSK Investigational Site", "city": "Cincinnati", "state": "Ohio", "zip": "45236", "country": "United States", "geoPoint": {"lat": 39.12713, "lon": -84.51435}}, {"facility": "GSK Investigational Site", "city": "Cleveland", "state": "Ohio", "zip": "44130", "country": "United States", "geoPoint": {"lat": 41.4995, "lon": -81.69541}}, {"facility": "GSK Investigational Site", "city": "Columbus", "state": "Ohio", "zip": "43215", "country": "United States", "geoPoint": {"lat": 39.96118, "lon": -82.99879}}, {"facility": "GSK Investigational Site", "city": "Dayton", "state": "Ohio", "zip": "45406", "country": "United States", "geoPoint": {"lat": 39.75895, "lon": -84.19161}}, {"facility": "GSK Investigational Site", "city": "Dayton", "state": "Ohio", "zip": "45459", "country": "United States", "geoPoint": {"lat": 39.75895, "lon": -84.19161}}, {"facility": "GSK Investigational Site", "city": "Groveport", "state": "Ohio", "zip": "43125", "country": "United States", "geoPoint": {"lat": 39.8784, "lon": -82.88379}}, {"facility": "GSK Investigational Site", "city": "Marion", "state": "Ohio", "zip": "43302", "country": "United States", "geoPoint": {"lat": 40.58867, "lon": -83.12852}}, {"facility": "GSK Investigational Site", "city": "Middleburg Heights", "state": "Ohio", "zip": "44130", "country": "United States", "geoPoint": {"lat": 41.36144, "lon": -81.81291}}, {"facility": "GSK Investigational Site", "city": "Shaker Heights", "state": "Ohio", "zip": "44120", "country": "United States", "geoPoint": {"lat": 41.47394, "lon": -81.53707}}, {"facility": "GSK Investigational Site", "city": "Springfield", "state": "Ohio", "zip": "45504", "country": "United States", "geoPoint": {"lat": 39.92423, "lon": -83.80882}}, {"facility": "GSK Investigational Site", "city": "Toledo", "state": "Ohio", "zip": "43606", "country": "United States", "geoPoint": {"lat": 41.66394, "lon": -83.55521}}, {"facility": "GSK Investigational Site", "city": "Toledo", "state": "Ohio", "zip": "43617", "country": "United States", "geoPoint": {"lat": 41.66394, "lon": -83.55521}}, {"facility": "GSK Investigational Site", "city": "Wheeling", "state": "Ohio", "zip": "26003", "country": "United States"}, {"facility": "GSK Investigational Site", "city": "Youngstown", "state": "Ohio", "zip": "44501-1790", "country": "United States", "geoPoint": {"lat": 41.09978, "lon": -80.64952}}, {"facility": "GSK Investigational Site", "city": "Zanesville", "state": "Ohio", "zip": "43701", "country": "United States", "geoPoint": {"lat": 39.94035, "lon": -82.01319}}, {"facility": "GSK Investigational Site", "city": "Oklahoma City", "state": "Oklahoma", "zip": "73103", "country": "United States", "geoPoint": {"lat": 35.46756, "lon": -97.51643}}, {"facility": "GSK Investigational Site", "city": "Oklahoma City", "state": "Oklahoma", "zip": "73112", "country": "United States", "geoPoint": {"lat": 35.46756, "lon": -97.51643}}, {"facility": "GSK Investigational Site", "city": "Oklahoma City", "state": "Oklahoma", "zip": "73120", "country": "United States", "geoPoint": {"lat": 35.46756, "lon": -97.51643}}, {"facility": "GSK Investigational Site", "city": "Eugene", "state": "Oregon", "zip": "97401", "country": "United States", "geoPoint": {"lat": 44.05207, "lon": -123.08675}}, {"facility": "GSK Investigational Site", "city": "Lake Oswego", "state": "Oregon", "zip": "97035", "country": "United States", "geoPoint": {"lat": 45.42067, "lon": -122.67065}}, {"facility": "GSK Investigational Site", "city": "Belle Vernon", "state": "Pennsylvania", "zip": "15012", "country": "United States", "geoPoint": {"lat": 40.12507, "lon": -79.86644}}, {"facility": "GSK Investigational Site", "city": "Belle Vernon", "state": "Pennsylvania", "zip": "15025", "country": "United States", "geoPoint": {"lat": 40.12507, "lon": -79.86644}}, {"facility": "GSK Investigational Site", "city": "Bensalem", "state": "Pennsylvania", "zip": "19020", "country": "United States", "geoPoint": {"lat": 40.10455, "lon": -74.95128}}, {"facility": "GSK Investigational Site", "city": "Carnegie", "state": "Pennsylvania", "zip": "15106", "country": "United States", "geoPoint": {"lat": 40.40868, "lon": -80.08339}}, {"facility": "GSK Investigational Site", "city": "Downingtown", "state": "Pennsylvania", "zip": "19335", "country": "United States", "geoPoint": {"lat": 40.0065, "lon": -75.70327}}, {"facility": "GSK Investigational Site", "city": "Erie", "state": "Pennsylvania", "zip": "16508", "country": "United States", "geoPoint": {"lat": 42.12922, "lon": -80.08506}}, {"facility": "GSK Investigational Site", "city": "Holland", "state": "Pennsylvania", "zip": "18966", "country": "United States", "geoPoint": {"lat": 40.17289, "lon": -74.99267}}, {"facility": "GSK Investigational Site", "city": "Huntingdon Valley", "state": "Pennsylvania", "zip": "19006", "country": "United States", "geoPoint": {"lat": 40.12261, "lon": -75.0635}}, {"facility": "GSK Investigational Site", "city": "Jenkintown", "state": "Pennsylvania", "zip": "19046", "country": "United States", "geoPoint": {"lat": 40.09594, "lon": -75.12517}}, {"facility": "GSK Investigational Site", "city": "Lansdale", "state": "Pennsylvania", "zip": "19446", "country": "United States", "geoPoint": {"lat": 40.2415, "lon": -75.28379}}, {"facility": "GSK Investigational Site", "city": "Latrobe", "state": "Pennsylvania", "zip": "15650", "country": "United States", "geoPoint": {"lat": 40.32118, "lon": -79.37948}}, {"facility": "GSK Investigational Site", "city": "Philadelphia", "state": "Pennsylvania", "zip": "19115", "country": "United States", "geoPoint": {"lat": 39.95233, "lon": -75.16379}}, {"facility": "GSK Investigational Site", "city": "Philadelphia", "state": "Pennsylvania", "zip": "19152", "country": "United States", "geoPoint": {"lat": 39.95233, "lon": -75.16379}}, {"facility": "GSK Investigational Site", "city": "Pittsburgh", "state": "Pennsylvania", "zip": "15206", "country": "United States", "geoPoint": {"lat": 40.44062, "lon": -79.99589}}, {"facility": "GSK Investigational Site", "city": "Pittsburgh", "state": "Pennsylvania", "zip": "15212", "country": "United States", "geoPoint": {"lat": 40.44062, "lon": -79.99589}}, {"facility": "GSK Investigational Site", "city": "Pittsburgh", "state": "Pennsylvania", "zip": "15236", "country": "United States", "geoPoint": {"lat": 40.44062, "lon": -79.99589}}, {"facility": "GSK Investigational Site", "city": "Scottdale", "state": "Pennsylvania", "zip": "15683", "country": "United States", "geoPoint": {"lat": 40.10035, "lon": -79.58698}}, {"facility": "GSK Investigational Site", "city": "Shippensburg", "state": "Pennsylvania", "zip": "17257", "country": "United States", "geoPoint": {"lat": 40.05065, "lon": -77.52026}}, {"facility": "GSK Investigational Site", "city": "Uniontown", "state": "Pennsylvania", "zip": "15401", "country": "United States", "geoPoint": {"lat": 39.90008, "lon": -79.71643}}, {"facility": "GSK Investigational Site", "city": "East Greenwich", "state": "Rhode Island", "zip": "02818", "country": "United States", "geoPoint": {"lat": 41.66038, "lon": -71.45589}}, {"facility": "GSK Investigational Site", "city": "Johnston", "state": "Rhode Island", "zip": "02919", "country": "United States", "geoPoint": {"lat": 41.82186, "lon": -71.50675}}, {"facility": "GSK Investigational Site", "city": "Warwick", "state": "Rhode Island", "zip": "02888-3221", "country": "United States", "geoPoint": {"lat": 41.7001, "lon": -71.41617}}, {"facility": "GSK Investigational Site", "city": "Columbia", "state": "South Carolina", "zip": "29201", "country": "United States", "geoPoint": {"lat": 34.00071, "lon": -81.03481}}, {"facility": "GSK Investigational Site", "city": "Florence", "state": "South Carolina", "zip": "29501", "country": "United States", "geoPoint": {"lat": 34.19543, "lon": -79.76256}}, {"facility": "GSK Investigational Site", "city": "Greenville", "state": "South Carolina", "zip": "29607", "country": "United States", "geoPoint": {"lat": 34.85262, "lon": -82.39401}}, {"facility": "GSK Investigational Site", "city": "Greenville", "state": "South Carolina", "zip": "29615", "country": "United States", "geoPoint": {"lat": 34.85262, "lon": -82.39401}}, {"facility": "GSK Investigational Site", "city": "Greenwood", "state": "South Carolina", "zip": "29646", "country": "United States", "geoPoint": {"lat": 34.1954, "lon": -82.16179}}, {"facility": "GSK Investigational Site", "city": "Greer", "state": "South Carolina", "zip": "29651", "country": "United States", "geoPoint": {"lat": 34.93873, "lon": -82.22706}}, {"facility": "GSK Investigational Site", "city": "Union", "state": "South Carolina", "zip": "29379", "country": "United States", "geoPoint": {"lat": 34.71541, "lon": -81.62371}}, {"facility": "GSK Investigational Site", "city": "Dakota Dunes", "state": "South Dakota", "zip": "57049", "country": "United States", "geoPoint": {"lat": 42.48749, "lon": -96.48642}}, {"facility": "GSK Investigational Site", "city": "Rapid City", "state": "South Dakota", "zip": "57702", "country": "United States", "geoPoint": {"lat": 44.08054, "lon": -103.23101}}, {"facility": "GSK Investigational Site", "city": "Sioux Falls", "state": "South Dakota", "zip": "57108", "country": "United States", "geoPoint": {"lat": 43.54997, "lon": -96.70033}}, {"facility": "GSK Investigational Site", "city": "Chattanooga", "state": "Tennessee", "zip": "37404", "country": "United States", "geoPoint": {"lat": 35.04563, "lon": -85.30968}}, {"facility": "GSK Investigational Site", "city": "Chattanooga", "state": "Tennessee", "zip": "37411", "country": "United States", "geoPoint": {"lat": 35.04563, "lon": -85.30968}}, {"facility": "GSK Investigational Site", "city": "Chattanooga", "state": "Tennessee", "zip": "37421", "country": "United States", "geoPoint": {"lat": 35.04563, "lon": -85.30968}}, {"facility": "GSK Investigational Site", "city": "Germantown", "state": "Tennessee", "zip": "38138", "country": "United States", "geoPoint": {"lat": 35.08676, "lon": -89.81009}}, {"facility": "GSK Investigational Site", "city": "McKenzie", "state": "Tennessee", "zip": "38201", "country": "United States", "geoPoint": {"lat": 36.13256, "lon": -88.51866}}, {"facility": "GSK Investigational Site", "city": "Shelbyville", "state": "Tennessee", "zip": "37160", "country": "United States", "geoPoint": {"lat": 35.48341, "lon": -86.46027}}, {"facility": "GSK Investigational Site", "city": "Arlington", "state": "Texas", "zip": "76018", "country": "United States", "geoPoint": {"lat": 32.73569, "lon": -97.10807}}, {"facility": "GSK Investigational Site", "city": "Austin", "state": "Texas", "zip": "78731", "country": "United States", "geoPoint": {"lat": 30.26715, "lon": -97.74306}}, {"facility": "GSK Investigational Site", "city": "Austin", "state": "Texas", "zip": "78758", "country": "United States", "geoPoint": {"lat": 30.26715, "lon": -97.74306}}, {"facility": "GSK Investigational Site", "city": "Austin", "state": "Texas", "zip": "78759-8950", "country": "United States", "geoPoint": {"lat": 30.26715, "lon": -97.74306}}, {"facility": "GSK Investigational Site", "city": "Corsicana", "state": "Texas", "zip": "75110", "country": "United States", "geoPoint": {"lat": 32.09543, "lon": -96.46887}}, {"facility": "GSK Investigational Site", "city": "Dallas", "state": "Texas", "zip": "75225", "country": "United States", "geoPoint": {"lat": 32.78306, "lon": -96.80667}}, {"facility": "GSK Investigational Site", "city": "Dallas", "state": "Texas", "zip": "75230", "country": "United States", "geoPoint": {"lat": 32.78306, "lon": -96.80667}}, {"facility": "GSK Investigational Site", "city": "Dallas", "state": "Texas", "zip": "75246", "country": "United States", "geoPoint": {"lat": 32.78306, "lon": -96.80667}}, {"facility": "GSK Investigational Site", "city": "Dallas", "state": "Texas", "zip": "75254", "country": "United States", "geoPoint": {"lat": 32.78306, "lon": -96.80667}}, {"facility": "GSK Investigational Site", "city": "Duncanville", "state": "Texas", "zip": "75116", "country": "United States", "geoPoint": {"lat": 32.6518, "lon": -96.90834}}, {"facility": "GSK Investigational Site", "city": "Gun Barrel City", "state": "Texas", "zip": "75156", "country": "United States", "geoPoint": {"lat": 32.33459, "lon": -96.15136}}, {"facility": "GSK Investigational Site", "city": "Houston", "state": "Texas", "zip": "77034", "country": "United States", "geoPoint": {"lat": 29.76328, "lon": -95.36327}}, {"facility": "GSK Investigational Site", "city": "Houston", "state": "Texas", "zip": "77043", "country": "United States", "geoPoint": {"lat": 29.76328, "lon": -95.36327}}, {"facility": "GSK Investigational Site", "city": "Houston", "state": "Texas", "zip": "77055", "country": "United States", "geoPoint": {"lat": 29.76328, "lon": -95.36327}}, {"facility": "GSK Investigational Site", "city": "Houston", "state": "Texas", "zip": "77077", "country": "United States", "geoPoint": {"lat": 29.76328, "lon": -95.36327}}, {"facility": "GSK Investigational Site", "city": "Houston", "state": "Texas", "zip": "77079", "country": "United States", "geoPoint": {"lat": 29.76328, "lon": -95.36327}}, {"facility": "GSK Investigational Site", "city": "Irving", "state": "Texas", "zip": "75061", "country": "United States", "geoPoint": {"lat": 32.81402, "lon": -96.94889}}, {"facility": "GSK Investigational Site", "city": "Katy", "state": "Texas", "zip": "77450", "country": "United States", "geoPoint": {"lat": 29.78579, "lon": -95.8244}}, {"facility": "GSK Investigational Site", "city": "Kerrville", "state": "Texas", "zip": "78028", "country": "United States", "geoPoint": {"lat": 30.04743, "lon": -99.14032}}, {"facility": "GSK Investigational Site", "city": "Killeen", "state": "Texas", "zip": "76542", "country": "United States", "geoPoint": {"lat": 31.11712, "lon": -97.7278}}, {"facility": "GSK Investigational Site", "city": "Kingwood", "state": "Texas", "zip": "77339", "country": "United States", "geoPoint": {"lat": 30.03355, "lon": -95.26104}}, {"facility": "GSK Investigational Site", "city": "Lewisville", "state": "Texas", "zip": "75067", "country": "United States", "geoPoint": {"lat": 33.04623, "lon": -96.99417}}, {"facility": "GSK Investigational Site", "city": "Lufkin", "state": "Texas", "zip": "75904", "country": "United States", "geoPoint": {"lat": 31.33824, "lon": -94.7291}}, {"facility": "GSK Investigational Site", "city": "McKinney", "state": "Texas", "zip": "75071", "country": "United States", "geoPoint": {"lat": 33.19762, "lon": -96.61527}}, {"facility": "GSK Investigational Site", "city": "Plano", "state": "Texas", "zip": "75024", "country": "United States", "geoPoint": {"lat": 33.01984, "lon": -96.69889}}, {"facility": "GSK Investigational Site", "city": "Plano", "state": "Texas", "zip": "75075", "country": "United States", "geoPoint": {"lat": 33.01984, "lon": -96.69889}}, {"facility": "GSK Investigational Site", "city": "San Antonio", "state": "Texas", "zip": "78229", "country": "United States", "geoPoint": {"lat": 29.42412, "lon": -98.49363}}, {"facility": "GSK Investigational Site", "city": "San Antonio", "state": "Texas", "zip": "78233", "country": "United States", "geoPoint": {"lat": 29.42412, "lon": -98.49363}}, {"facility": "GSK Investigational Site", "city": "San Antonio", "state": "Texas", "zip": "78238", "country": "United States", "geoPoint": {"lat": 29.42412, "lon": -98.49363}}, {"facility": "GSK Investigational Site", "city": "San Antonio", "state": "Texas", "zip": "78251", "country": "United States", "geoPoint": {"lat": 29.42412, "lon": -98.49363}}, {"facility": "GSK Investigational Site", "city": "San Antonio", "state": "Texas", "zip": "78258", "country": "United States", "geoPoint": {"lat": 29.42412, "lon": -98.49363}}, {"facility": "GSK Investigational Site", "city": "Sugar Land", "state": "Texas", "zip": "77479", "country": "United States", "geoPoint": {"lat": 29.61968, "lon": -95.63495}}, {"facility": "GSK Investigational Site", "city": "Tomball", "state": "Texas", "zip": "77375", "country": "United States", "geoPoint": {"lat": 30.09716, "lon": -95.61605}}, {"facility": "GSK Investigational Site", "city": "Tyler", "state": "Texas", "zip": "75708", "country": "United States", "geoPoint": {"lat": 32.35126, "lon": -95.30106}}, {"facility": "GSK Investigational Site", "city": "Waco", "state": "Texas", "zip": "76710", "country": "United States", "geoPoint": {"lat": 31.54933, "lon": -97.14667}}, {"facility": "GSK Investigational Site", "city": "Waco", "state": "Texas", "zip": "76712", "country": "United States", "geoPoint": {"lat": 31.54933, "lon": -97.14667}}, {"facility": "GSK Investigational Site", "city": "Bountiful", "state": "Utah", "zip": "84010", "country": "United States", "geoPoint": {"lat": 40.88939, "lon": -111.88077}}, {"facility": "GSK Investigational Site", "city": "Clinton", "state": "Utah", "zip": "84015", "country": "United States", "geoPoint": {"lat": 41.13967, "lon": -112.0505}}, {"facility": "GSK Investigational Site", "city": "Layton", "state": "Utah", "zip": "84041", "country": "United States", "geoPoint": {"lat": 41.06022, "lon": -111.97105}}, {"facility": "GSK Investigational Site", "city": "Midvale", "state": "Utah", "zip": "84047", "country": "United States", "geoPoint": {"lat": 40.61106, "lon": -111.89994}}, {"facility": "GSK Investigational Site", "city": "Murray", "state": "Utah", "zip": "84107", "country": "United States", "geoPoint": {"lat": 40.66689, "lon": -111.88799}}, {"facility": "GSK Investigational Site", "city": "West Jordan", "state": "Utah", "zip": "84088", "country": "United States", "geoPoint": {"lat": 40.60967, "lon": -111.9391}}, {"facility": "GSK Investigational Site", "city": "Falls Church", "state": "Vermont", "zip": "22044", "country": "United States"}, {"facility": "GSK Investigational Site", "city": "Alexandria", "state": "Virginia", "zip": "22304", "country": "United States", "geoPoint": {"lat": 38.80484, "lon": -77.04692}}, {"facility": "GSK Investigational Site", "city": "Charlottesville", "state": "Virginia", "zip": "22902", "country": "United States", "geoPoint": {"lat": 38.02931, "lon": -78.47668}}, {"facility": "GSK Investigational Site", "city": "Hampton", "state": "Virginia", "zip": "23666", "country": "United States", "geoPoint": {"lat": 37.02987, "lon": -76.34522}}, {"facility": "GSK Investigational Site", "city": "Midlothian", "state": "Virginia", "zip": "23113", "country": "United States", "geoPoint": {"lat": 37.50598, "lon": -77.64916}}, {"facility": "GSK Investigational Site", "city": "Midlothian", "state": "Virginia", "zip": "23114", "country": "United States", "geoPoint": {"lat": 37.50598, "lon": -77.64916}}, {"facility": "GSK Investigational Site", "city": "Norfolk", "state": "Virginia", "zip": "23507", "country": "United States", "geoPoint": {"lat": 36.84681, "lon": -76.28522}}, {"facility": "GSK Investigational Site", "city": "Richmond", "state": "Virginia", "zip": "23223", "country": "United States", "geoPoint": {"lat": 37.55376, "lon": -77.46026}}, {"facility": "GSK Investigational Site", "city": "Richmond", "state": "Virginia", "zip": "23229", "country": "United States", "geoPoint": {"lat": 37.55376, "lon": -77.46026}}, {"facility": "GSK Investigational Site", "city": "Richmond", "state": "Virginia", "zip": "23233", "country": "United States", "geoPoint": {"lat": 37.55376, "lon": -77.46026}}, {"facility": "GSK Investigational Site", "city": "Richmond", "state": "Virginia", "zip": "23235", "country": "United States", "geoPoint": {"lat": 37.55376, "lon": -77.46026}}, {"facility": "GSK Investigational Site", "city": "Suffolk", "state": "Virginia", "zip": "23435", "country": "United States", "geoPoint": {"lat": 36.72836, "lon": -76.58496}}, {"facility": "GSK Investigational Site", "city": "Virginia Beach", "state": "Virginia", "zip": "23454", "country": "United States", "geoPoint": {"lat": 36.85293, "lon": -75.97799}}, {"facility": "GSK Investigational Site", "city": "Bellingham", "state": "Washington", "zip": "98225", "country": "United States", "geoPoint": {"lat": 48.75955, "lon": -122.48822}}, {"facility": "GSK Investigational Site", "city": "Port Orchard", "state": "Washington", "zip": "98366", "country": "United States", "geoPoint": {"lat": 47.54037, "lon": -122.63625}}, {"facility": "GSK Investigational Site", "city": "Puyallup", "state": "Washington", "zip": "98371", "country": "United States", "geoPoint": {"lat": 47.18538, "lon": -122.2929}}, {"facility": "GSK Investigational Site", "city": "Spokane", "state": "Washington", "zip": "99204", "country": "United States", "geoPoint": {"lat": 47.65966, "lon": -117.42908}}, {"facility": "GSK Investigational Site", "city": "Morgantown", "state": "West Virginia", "zip": "26505", "country": "United States", "geoPoint": {"lat": 39.62953, "lon": -79.9559}}, {"facility": "GSK Investigational Site", "city": "Madison", "state": "Wisconsin", "zip": "53792-9988", "country": "United States", "geoPoint": {"lat": 43.07305, "lon": -89.40123}}, {"facility": "GSK Investigational Site", "city": "Derqui, Pilar", "state": "Buenos Aires", "zip": "B1629AHJ", "country": "Argentina"}, {"facility": "GSK Investigational Site", "city": "Nueve de Julio", "state": "Buenos Aires", "zip": "B6500BWQ", "country": "Argentina", "geoPoint": {"lat": -35.44437, "lon": -60.88313}}, {"facility": "GSK Investigational Site", "city": "San Martin", "state": "Buenos Aires", "zip": "1650", "country": "Argentina", "geoPoint": {"lat": -33.08103, "lon": -68.46814}}, {"facility": "GSK Investigational Site", "city": "Concepcion del Uruguay", "state": "Entre R\u00edos", "zip": "3260", "country": "Argentina", "geoPoint": {"lat": -32.48249, "lon": -58.23722}}, {"facility": "GSK Investigational Site", "city": "Parana", "state": "Entre R\u00edos", "zip": "E3100BHK", "country": "Argentina", "geoPoint": {"lat": -31.73197, "lon": -60.5238}}, {"facility": "GSK Investigational Site", "city": "Rosario", "state": "Santa Fe", "zip": "S2000JKR", "country": "Argentina", "geoPoint": {"lat": -32.94682, "lon": -60.63932}}, {"facility": "GSK Investigational Site", "city": "San Miguel de Tucuman", "state": "Tucum\u00e1n", "zip": "4000", "country": "Argentina", "geoPoint": {"lat": -26.82414, "lon": -65.2226}}, {"facility": "GSK Investigational Site", "city": "Buenos Aires", "zip": "1406", "country": "Argentina", "geoPoint": {"lat": -34.61315, "lon": -58.37723}}, {"facility": "GSK Investigational Site", "city": "Buenos Aires", "zip": "1425", "country": "Argentina", "geoPoint": {"lat": -34.61315, "lon": -58.37723}}, {"facility": "GSK Investigational Site", "city": "Buenos Aires", "zip": "1602", "country": "Argentina", "geoPoint": {"lat": -34.61315, "lon": -58.37723}}, {"facility": "GSK Investigational Site", "city": "Ciudad Aut\u00f3noma de Buenos Aires", "zip": "C1121ABE", "country": "Argentina", "geoPoint": {"lat": -34.61315, "lon": -58.37723}}, {"facility": "GSK Investigational Site", "city": "La Plata", "zip": "B1902COS", "country": "Argentina", "geoPoint": {"lat": -34.92145, "lon": -57.95453}}, {"facility": "GSK Investigational Site", "city": "Lan\u00fas", "zip": "B1824KAJ", "country": "Argentina", "geoPoint": {"lat": -34.70252, "lon": -58.3955}}, {"facility": "GSK Investigational Site", "city": "Mendoza", "zip": "5500", "country": "Argentina", "geoPoint": {"lat": -32.89084, "lon": -68.82717}}, {"facility": "GSK Investigational Site", "city": "Rosario", "zip": "S2000BRH", "country": "Argentina", "geoPoint": {"lat": -32.94682, "lon": -60.63932}}, {"facility": "GSK Investigational Site", "city": "Broadmeadow", "state": "New South Wales", "zip": "2292", "country": "Australia", "geoPoint": {"lat": -32.92371, "lon": 151.72849}}, {"facility": "GSK Investigational Site", "city": "Randwick", "state": "New South Wales", "zip": "2031", "country": "Australia", "geoPoint": {"lat": -33.91439, "lon": 151.24895}}, {"facility": "GSK Investigational Site", "city": "Westmead", "state": "New South Wales", "zip": "2145", "country": "Australia", "geoPoint": {"lat": -33.80383, "lon": 150.98768}}, {"facility": "GSK Investigational Site", "city": "Auchenflower", "state": "Queensland", "zip": "4066", "country": "Australia", "geoPoint": {"lat": -27.47443, "lon": 152.99213}}, {"facility": "GSK Investigational Site", "city": "Redcliffe", "state": "Queensland", "zip": "4020", "country": "Australia", "geoPoint": {"lat": -31.93845, "lon": 115.94645}}, {"facility": "GSK Investigational Site", "city": "Woolloongabba", "state": "Queensland", "zip": "4102", "country": "Australia", "geoPoint": {"lat": -27.48855, "lon": 153.03655}}, {"facility": "GSK Investigational Site", "city": "Bedford Park", "state": "South Australia", "zip": "5042", "country": "Australia", "geoPoint": {"lat": -35.03333, "lon": 138.56667}}, {"facility": "GSK Investigational Site", "city": "Clayton", "state": "Victoria", "zip": "3168", "country": "Australia", "geoPoint": {"lat": -37.91667, "lon": 145.11667}}, {"facility": "GSK Investigational Site", "city": "Subiaco", "state": "Western Australia", "zip": "6008", "country": "Australia", "geoPoint": {"lat": -31.9485, "lon": 115.8268}}, {"facility": "GSK Investigational Site", "city": "Parkville", "zip": "3052", "country": "Australia", "geoPoint": {"lat": -37.78333, "lon": 144.95}}, {"facility": "GSK Investigational Site", "city": "Feldkirch", "zip": "6800", "country": "Austria", "geoPoint": {"lat": 47.23306, "lon": 9.6}}, {"facility": "GSK Investigational Site", "city": "Salzburg", "zip": "A-5020", "country": "Austria", "geoPoint": {"lat": 47.79941, "lon": 13.04399}}, {"facility": "GSK Investigational Site", "city": "Vienna", "zip": "A-1030", "country": "Austria", "geoPoint": {"lat": 48.20849, "lon": 16.37208}}, {"facility": "GSK Investigational Site", "city": "Wels", "zip": "4600", "country": "Austria", "geoPoint": {"lat": 48.16667, "lon": 14.03333}}, {"facility": "GSK Investigational Site", "city": "Wien", "zip": "1230", "country": "Austria", "geoPoint": {"lat": 48.20849, "lon": 16.37208}}, {"facility": "GSK Investigational Site", "city": "Brussels", "zip": "1000", "country": "Belgium", "geoPoint": {"lat": 50.85045, "lon": 4.34878}}, {"facility": "GSK Investigational Site", "city": "Bruxelles", "zip": "1070", "country": "Belgium", "geoPoint": {"lat": 50.85045, "lon": 4.34878}}, {"facility": "GSK Investigational Site", "city": "Bruxelles", "zip": "1200", "country": "Belgium", "geoPoint": {"lat": 50.85045, "lon": 4.34878}}, {"facility": "GSK Investigational Site", "city": "Hamois (Natoye)", "zip": "5360", "country": "Belgium"}, {"facility": "GSK Investigational Site", "city": "Jambes", "zip": "5100", "country": "Belgium", "geoPoint": {"lat": 50.45636, "lon": 4.87166}}, {"facility": "GSK Investigational Site", "city": "Leuven", "zip": "3000", "country": "Belgium", "geoPoint": {"lat": 50.87959, "lon": 4.70093}}, {"facility": "GSK Investigational Site", "city": "Montigny-Le-Tilleul", "zip": "6110", "country": "Belgium", "geoPoint": {"lat": 50.38056, "lon": 4.37582}}, {"facility": "GSK Investigational Site", "city": "Blagoevgrad", "zip": "2700", "country": "Bulgaria", "geoPoint": {"lat": 42.01667, "lon": 23.1}}, {"facility": "GSK Investigational Site", "city": "Pazardjik", "zip": "4400", "country": "Bulgaria"}, {"facility": "GSK Investigational Site", "city": "Plovdiv", "zip": "4000", "country": "Bulgaria", "geoPoint": {"lat": 42.15, "lon": 24.75}}, {"facility": "GSK Investigational Site", "city": "Sliven", "zip": "8800", "country": "Bulgaria", "geoPoint": {"lat": 42.68583, "lon": 26.32917}}, {"facility": "GSK Investigational Site", "city": "Sofia", "zip": "1000", "country": "Bulgaria", "geoPoint": {"lat": 42.69751, "lon": 23.32415}}, {"facility": "GSK Investigational Site", "city": "Sofia", "zip": "1463", "country": "Bulgaria", "geoPoint": {"lat": 42.69751, "lon": 23.32415}}, {"facility": "GSK Investigational Site", "city": "Sofia", "zip": "1606", "country": "Bulgaria", "geoPoint": {"lat": 42.69751, "lon": 23.32415}}, {"facility": "GSK Investigational Site", "city": "Troyan", "zip": "5600", "country": "Bulgaria", "geoPoint": {"lat": 42.89427, "lon": 24.71589}}, {"facility": "GSK Investigational Site", "city": "Varna", "zip": "9000", "country": "Bulgaria", "geoPoint": {"lat": 43.21667, "lon": 27.91667}}, {"facility": "GSK Investigational Site", "city": "Veliko Tarnovo", "zip": "5000", "country": "Bulgaria", "geoPoint": {"lat": 43.08124, "lon": 25.62904}}, {"facility": "GSK Investigational Site", "city": "Vidin", "zip": "3700", "country": "Bulgaria", "geoPoint": {"lat": 43.99, "lon": 22.8725}}, {"facility": "GSK Investigational Site", "city": "Edmonton", "state": "Alberta", "zip": "T5A 4L8", "country": "Canada", "geoPoint": {"lat": 53.55014, "lon": -113.46871}}, {"facility": "GSK Investigational Site", "city": "Edmonton", "state": "Alberta", "zip": "T5X 3N5", "country": "Canada", "geoPoint": {"lat": 53.55014, "lon": -113.46871}}, {"facility": "GSK Investigational Site", "city": "Surrey", "state": "British Columbia", "zip": "V35 2N6", "country": "Canada", "geoPoint": {"lat": 49.10635, "lon": -122.82509}}, {"facility": "GSK Investigational Site", "city": "Surrey", "state": "British Columbia", "zip": "V4H 2H9", "country": "Canada", "geoPoint": {"lat": 49.10635, "lon": -122.82509}}, {"facility": "GSK Investigational Site", "city": "Victoria", "state": "British Columbia", "zip": "V8V3N7", "country": "Canada", "geoPoint": {"lat": 48.43294, "lon": -123.3693}}, {"facility": "GSK Investigational Site", "city": "Brampton", "state": "Ontario", "zip": "L6T3J1", "country": "Canada", "geoPoint": {"lat": 43.68341, "lon": -79.76633}}, {"facility": "GSK Investigational Site", "city": "Fort Erie", "state": "Ontario", "zip": "L2A 1X3", "country": "Canada", "geoPoint": {"lat": 42.90012, "lon": -78.93286}}, {"facility": "GSK Investigational Site", "city": "Grimsby", "state": "Ontario", "zip": "L3M 1P3", "country": "Canada", "geoPoint": {"lat": 43.20011, "lon": -79.56631}}, {"facility": "GSK Investigational Site", "city": "Kingston", "state": "Ontario", "zip": "K7L 2V6", "country": "Canada", "geoPoint": {"lat": 44.22976, "lon": -76.48101}}, {"facility": "GSK Investigational Site", "city": "Mississauga", "state": "Ontario", "zip": "L4T 4J2", "country": "Canada", "geoPoint": {"lat": 43.5789, "lon": -79.6583}}, {"facility": "GSK Investigational Site", "city": "Newmarket", "state": "Ontario", "zip": "L3Y 5G8", "country": "Canada", "geoPoint": {"lat": 44.05011, "lon": -79.46631}}, {"facility": "GSK Investigational Site", "city": "Oshawa", "state": "Ontario", "zip": "L1H 7K4", "country": "Canada", "geoPoint": {"lat": 43.90012, "lon": -78.84957}}, {"facility": "GSK Investigational Site", "city": "Toronto", "state": "Ontario", "zip": "M5T 3A9", "country": "Canada", "geoPoint": {"lat": 43.70011, "lon": -79.4163}}, {"facility": "GSK Investigational Site", "city": "Windsor", "state": "Ontario", "zip": "N8X 2G1", "country": "Canada", "geoPoint": {"lat": 42.30008, "lon": -83.01654}}, {"facility": "GSK Investigational Site", "city": "Temuco", "state": "Regi\u00f3n De La Araucania", "zip": "4800798", "country": "Chile", "geoPoint": {"lat": -38.73965, "lon": -72.59842}}, {"facility": "GSK Investigational Site", "city": "Valparaiso", "state": "Valpara\u00edso", "zip": "2341131", "country": "Chile", "geoPoint": {"lat": -33.03932, "lon": -71.62725}}, {"facility": "GSK Investigational Site", "city": "Santiago", "zip": "7560994", "country": "Chile", "geoPoint": {"lat": -33.45694, "lon": -70.64827}}, {"facility": "GSK Investigational Site", "city": "Valdivia", "zip": "5090146", "country": "Chile", "geoPoint": {"lat": -39.81422, "lon": -73.24589}}, {"facility": "GSK Investigational Site", "city": "Vi\u00f1a del Mar", "zip": "2570017.", "country": "Chile", "geoPoint": {"lat": -33.02457, "lon": -71.55183}}, {"facility": "GSK Investigational Site", "city": "Vi\u00f1a del Mar", "zip": "2570017", "country": "Chile", "geoPoint": {"lat": -33.02457, "lon": -71.55183}}, {"facility": "GSK Investigational Site", "city": "Bogota", "country": "Colombia", "geoPoint": {"lat": 4.60971, "lon": -74.08175}}, {"facility": "GSK Investigational Site", "city": "Bucaramanga", "country": "Colombia", "geoPoint": {"lat": 7.12539, "lon": -73.1198}}, {"facility": "GSK Investigational Site", "city": "Cakovec", "zip": "40000", "country": "Croatia", "geoPoint": {"lat": 46.38444, "lon": 16.43389}}, {"facility": "GSK Investigational Site", "city": "Senj", "zip": "53270", "country": "Croatia", "geoPoint": {"lat": 44.98944, "lon": 14.90583}}, {"facility": "GSK Investigational Site", "city": "Zadar", "zip": "23000", "country": "Croatia", "geoPoint": {"lat": 44.11972, "lon": 15.24222}}, {"facility": "GSK Investigational Site", "city": "Zagreb", "zip": "10000", "country": "Croatia", "geoPoint": {"lat": 45.81444, "lon": 15.97798}}, {"facility": "GSK Investigational Site", "city": "Havlickuv brod", "zip": "580 01", "country": "Czechia", "geoPoint": {"lat": 49.60785, "lon": 15.58069}}, {"facility": "GSK Investigational Site", "city": "Hlucin", "zip": "748 01", "country": "Czechia", "geoPoint": {"lat": 49.89795, "lon": 18.19196}}, {"facility": "GSK Investigational Site", "city": "Jaromer", "zip": "551 01", "country": "Czechia", "geoPoint": {"lat": 50.3562, "lon": 15.92136}}, {"facility": "GSK Investigational Site", "city": "Kyjov", "zip": "697 33", "country": "Czechia", "geoPoint": {"lat": 49.01018, "lon": 17.12253}}, {"facility": "GSK Investigational Site", "city": "Plzen", "zip": "301 00", "country": "Czechia", "geoPoint": {"lat": 49.74747, "lon": 13.37759}}, {"facility": "GSK Investigational Site", "city": "Plzen", "zip": "323 00", "country": "Czechia", "geoPoint": {"lat": 49.74747, "lon": 13.37759}}, {"facility": "GSK Investigational Site", "city": "Praha 13", "zip": "158 00", "country": "Czechia", "geoPoint": {"lat": 50.08804, "lon": 14.42076}}, {"facility": "GSK Investigational Site", "city": "Praha 1", "zip": "110 00", "country": "Czechia", "geoPoint": {"lat": 50.08804, "lon": 14.42076}}, {"facility": "GSK Investigational Site", "city": "Praha 4", "zip": "140 00", "country": "Czechia", "geoPoint": {"lat": 50.08804, "lon": 14.42076}}, {"facility": "GSK Investigational Site", "city": "Praha 6", "zip": "163 00", "country": "Czechia", "geoPoint": {"lat": 50.08804, "lon": 14.42076}}, {"facility": "GSK Investigational Site", "city": "Praha 6", "zip": "169 00", "country": "Czechia", "geoPoint": {"lat": 50.08804, "lon": 14.42076}}, {"facility": "GSK Investigational Site", "city": "Svitavy", "zip": "568 25", "country": "Czechia", "geoPoint": {"lat": 49.75594, "lon": 16.46829}}, {"facility": "GSK Investigational Site", "city": "Tremosna", "zip": "330 11", "country": "Czechia", "geoPoint": {"lat": 49.81584, "lon": 13.39499}}, {"facility": "GSK Investigational Site", "city": "Copenhagen", "zip": "2400", "country": "Denmark", "geoPoint": {"lat": 55.67594, "lon": 12.56553}}, {"facility": "GSK Investigational Site", "city": "Rosklide", "zip": "DK-4000", "country": "Denmark"}, {"facility": "GSK Investigational Site", "city": "Bruchsal", "state": "Baden-Wuerttemberg", "zip": "76646", "country": "Germany", "geoPoint": {"lat": 49.12426, "lon": 8.59804}}, {"facility": "GSK Investigational Site", "city": "Deggingen", "state": "Baden-Wuerttemberg", "zip": "73326", "country": "Germany", "geoPoint": {"lat": 48.5971, "lon": 9.71891}}, {"facility": "GSK Investigational Site", "city": "Mannheim", "state": "Baden-Wuerttemberg", "zip": "68161", "country": "Germany", "geoPoint": {"lat": 49.4891, "lon": 8.46694}}, {"facility": "GSK Investigational Site", "city": "Mannheim", "state": "Baden-Wuerttemberg", "zip": "68167", "country": "Germany", "geoPoint": {"lat": 49.4891, "lon": 8.46694}}, {"facility": "GSK Investigational Site", "city": "Aschaffenburg", "state": "Bayern", "zip": "63739", "country": "Germany", "geoPoint": {"lat": 49.97704, "lon": 9.15214}}, {"facility": "GSK Investigational Site", "city": "Augsburg", "state": "Bayern", "zip": "86150", "country": "Germany", "geoPoint": {"lat": 48.37154, "lon": 10.89851}}, {"facility": "GSK Investigational Site", "city": "Augsburg", "state": "Bayern", "zip": "86156", "country": "Germany", "geoPoint": {"lat": 48.37154, "lon": 10.89851}}, {"facility": "GSK Investigational Site", "city": "Bad Woerrishofen", "state": "Bayern", "zip": "86825", "country": "Germany"}, {"facility": "GSK Investigational Site", "city": "Feldkirchen", "state": "Bayern", "zip": "83620", "country": "Germany", "geoPoint": {"lat": 48.14811, "lon": 11.731}}, {"facility": "GSK Investigational Site", "city": "Fuerth", "state": "Bayern", "zip": "90762", "country": "Germany", "geoPoint": {"lat": 49.47593, "lon": 10.98856}}, {"facility": "GSK Investigational Site", "city": "Gars Am Inn", "state": "Bayern", "zip": "83536", "country": "Germany"}, {"facility": "GSK Investigational Site", "city": "Georgensgmuend", "state": "Bayern", "zip": "91166", "country": "Germany"}, {"facility": "GSK Investigational Site", "city": "Grossheirath", "state": "Bayern", "zip": "96269", "country": "Germany", "geoPoint": {"lat": 50.1763, "lon": 10.95048}}, {"facility": "GSK Investigational Site", "city": "Hoechstadt", "state": "Bayern", "zip": "91315", "country": "Germany"}, {"facility": "GSK Investigational Site", "city": "Muenchen", "state": "Bayern", "zip": "80335", "country": "Germany", "geoPoint": {"lat": 51.60698, "lon": 13.31243}}, {"facility": "GSK Investigational Site", "city": "Muenchen", "state": "Bayern", "zip": "80337", "country": "Germany", "geoPoint": {"lat": 51.60698, "lon": 13.31243}}, {"facility": "GSK Investigational Site", "city": "Neuoetting", "state": "Bayern", "zip": "84524", "country": "Germany"}, {"facility": "GSK Investigational Site", "city": "Vilshofen", "state": "Bayern", "zip": "94474", "country": "Germany", "geoPoint": {"lat": 48.62695, "lon": 13.19222}}, {"facility": "GSK Investigational Site", "city": "Weissenhorn", "state": "Bayern", "zip": "89264", "country": "Germany", "geoPoint": {"lat": 48.30501, "lon": 10.16047}}, {"facility": "GSK Investigational Site", "city": "Potsdam", "state": "Brandenburg", "zip": "14467", "country": "Germany", "geoPoint": {"lat": 52.39886, "lon": 13.06566}}, {"facility": "GSK Investigational Site", "city": "Potsdam", "state": "Brandenburg", "zip": "14478", "country": "Germany", "geoPoint": {"lat": 52.39886, "lon": 13.06566}}, {"facility": "GSK Investigational Site", "city": "Rathenow", "state": "Brandenburg", "zip": "14712", "country": "Germany", "geoPoint": {"lat": 52.60659, "lon": 12.33696}}, {"facility": "GSK Investigational Site", "city": "Bad Arolsen", "state": "Hessen", "zip": "34454", "country": "Germany", "geoPoint": {"lat": 51.37982, "lon": 9.01445}}, {"facility": "GSK Investigational Site", "city": "Bensheim", "state": "Hessen", "zip": "64625", "country": "Germany", "geoPoint": {"lat": 49.68369, "lon": 8.61839}}, {"facility": "GSK Investigational Site", "city": "Frankenberg", "state": "Hessen", "zip": "35066", "country": "Germany", "geoPoint": {"lat": 51.0589, "lon": 8.80077}}, {"facility": "GSK Investigational Site", "city": "Frankfurt/Main", "state": "Hessen", "zip": "60320", "country": "Germany", "geoPoint": {"lat": 50.11552, "lon": 8.68417}}, {"facility": "GSK Investigational Site", "city": "Frankfurt", "state": "Hessen", "zip": "60318", "country": "Germany", "geoPoint": {"lat": 50.11552, "lon": 8.68417}}, {"facility": "GSK Investigational Site", "city": "Lahnau", "state": "Hessen", "zip": "35633", "country": "Germany"}, {"facility": "GSK Investigational Site", "city": "Offenbach", "state": "Hessen", "zip": "63071", "country": "Germany", "geoPoint": {"lat": 50.10061, "lon": 8.76647}}, {"facility": "GSK Investigational Site", "city": "Rodgau", "state": "Hessen", "zip": "63110", "country": "Germany", "geoPoint": {"lat": 50.02627, "lon": 8.88588}}, {"facility": "GSK Investigational Site", "city": "Ruesselsheim", "state": "Hessen", "zip": "65428", "country": "Germany"}, {"facility": "GSK Investigational Site", "city": "Schwalmstadt", "state": "Hessen", "zip": "34613", "country": "Germany", "geoPoint": {"lat": 50.93333, "lon": 9.21667}}, {"facility": "GSK Investigational Site", "city": "Bad Pyrmont", "state": "Niedersachsen", "zip": "31812", "country": "Germany", "geoPoint": {"lat": 51.98589, "lon": 9.25246}}, {"facility": "GSK Investigational Site", "city": "Goettingen", "state": "Niedersachsen", "zip": "37081", "country": "Germany"}, {"facility": "GSK Investigational Site", "city": "Wolfsburg", "state": "Niedersachsen", "zip": "38448", "country": "Germany", "geoPoint": {"lat": 52.42452, "lon": 10.7815}}, {"facility": "GSK Investigational Site", "city": "Bad Lippspringe", "state": "Nordrhein-Westfalen", "zip": "33175", "country": "Germany", "geoPoint": {"lat": 51.78333, "lon": 8.81683}}, {"facility": "GSK Investigational Site", "city": "Beckum", "state": "Nordrhein-Westfalen", "zip": "59269", "country": "Germany", "geoPoint": {"lat": 51.75571, "lon": 8.04075}}, {"facility": "GSK Investigational Site", "city": "Bergisch Gladbach", "state": "Nordrhein-Westfalen", "zip": "51429", "country": "Germany", "geoPoint": {"lat": 50.9856, "lon": 7.13298}}, {"facility": "GSK Investigational Site", "city": "Bochum", "state": "Nordrhein-Westfalen", "zip": "44791", "country": "Germany", "geoPoint": {"lat": 51.48165, "lon": 7.21648}}, {"facility": "GSK Investigational Site", "city": "Bonn", "state": "Nordrhein-Westfalen", "zip": "53119", "country": "Germany", "geoPoint": {"lat": 50.73438, "lon": 7.09549}}, {"facility": "GSK Investigational Site", "city": "Bonn", "state": "Nordrhein-Westfalen", "zip": "53123", "country": "Germany", "geoPoint": {"lat": 50.73438, "lon": 7.09549}}, {"facility": "GSK Investigational Site", "city": "Detmold", "state": "Nordrhein-Westfalen", "zip": "32756", "country": "Germany", "geoPoint": {"lat": 51.93855, "lon": 8.87318}}, {"facility": "GSK Investigational Site", "city": "Engelskirchen", "state": "Nordrhein-Westfalen", "zip": "51766", "country": "Germany", "geoPoint": {"lat": 50.98852, "lon": 7.41384}}, {"facility": "GSK Investigational Site", "city": "Essen", "state": "Nordrhein-Westfalen", "zip": "45136", "country": "Germany", "geoPoint": {"lat": 51.45657, "lon": 7.01228}}, {"facility": "GSK Investigational Site", "city": "Essen", "state": "Nordrhein-Westfalen", "zip": "45359", "country": "Germany", "geoPoint": {"lat": 51.45657, "lon": 7.01228}}, {"facility": "GSK Investigational Site", "city": "Hagen", "state": "Nordrhein-Westfalen", "zip": "58089", "country": "Germany", "geoPoint": {"lat": 51.36081, "lon": 7.47168}}, {"facility": "GSK Investigational Site", "city": "Herne", "state": "Nordrhein-Westfalen", "zip": "44629", "country": "Germany", "geoPoint": {"lat": 51.5388, "lon": 7.22572}}, {"facility": "GSK Investigational Site", "city": "Kleve-Materborn", "state": "Nordrhein-Westfalen", "zip": "47533", "country": "Germany"}, {"facility": "GSK Investigational Site", "city": "Krefeld", "state": "Nordrhein-Westfalen", "zip": "47798", "country": "Germany", "geoPoint": {"lat": 51.33645, "lon": 6.55382}}, {"facility": "GSK Investigational Site", "city": "Muenster", "state": "Nordrhein-Westfalen", "zip": "48149", "country": "Germany", "geoPoint": {"lat": 51.96236, "lon": 7.62571}}, {"facility": "GSK Investigational Site", "city": "Neuss", "state": "Nordrhein-Westfalen", "zip": "41469", "country": "Germany", "geoPoint": {"lat": 51.19807, "lon": 6.68504}}, {"facility": "GSK Investigational Site", "city": "Ratingen", "state": "Nordrhein-Westfalen", "zip": "40878", "country": "Germany", "geoPoint": {"lat": 51.29724, "lon": 6.84929}}, {"facility": "GSK Investigational Site", "city": "Solingen", "state": "Nordrhein-Westfalen", "zip": "42651", "country": "Germany", "geoPoint": {"lat": 51.17343, "lon": 7.0845}}, {"facility": "GSK Investigational Site", "city": "Telgte", "state": "Nordrhein-Westfalen", "zip": "48291", "country": "Germany", "geoPoint": {"lat": 51.97995, "lon": 7.78293}}, {"facility": "GSK Investigational Site", "city": "Witten", "state": "Nordrhein-Westfalen", "zip": "58452", "country": "Germany", "geoPoint": {"lat": 51.44362, "lon": 7.35258}}, {"facility": "GSK Investigational Site", "city": "Wuppertal", "state": "Nordrhein-Westfalen", "zip": "42117", "country": "Germany", "geoPoint": {"lat": 51.27027, "lon": 7.16755}}, {"facility": "GSK Investigational Site", "city": "Koblenz", "state": "Rheinland-Pfalz", "zip": "56068", "country": "Germany", "geoPoint": {"lat": 50.35357, "lon": 7.57883}}, {"facility": "GSK Investigational Site", "city": "Raubach", "state": "Rheinland-Pfalz", "zip": "56316", "country": "Germany", "geoPoint": {"lat": 50.5753, "lon": 7.62455}}, {"facility": "GSK Investigational Site", "city": "Rhaunen", "state": "Rheinland-Pfalz", "zip": "55624", "country": "Germany", "geoPoint": {"lat": 49.86322, "lon": 7.34232}}, {"facility": "GSK Investigational Site", "city": "Dillingen", "state": "Saarland", "zip": "66763", "country": "Germany", "geoPoint": {"lat": 49.35557, "lon": 6.72781}}, {"facility": "GSK Investigational Site", "city": "Saarbruecken", "state": "Saarland", "zip": "66111", "country": "Germany", "geoPoint": {"lat": 49.23262, "lon": 7.0098}}, {"facility": "GSK Investigational Site", "city": "Teuchern", "state": "Sachsen-Anhalt", "zip": "6682", "country": "Germany", "geoPoint": {"lat": 51.12094, "lon": 12.0241}}, {"facility": "GSK Investigational Site", "city": "Zerbst", "state": "Sachsen-Anhalt", "zip": "39261", "country": "Germany", "geoPoint": {"lat": 51.9662, "lon": 12.08517}}, {"facility": "GSK Investigational Site", "city": "Auerbach", "state": "Sachsen", "zip": "08209", "country": "Germany", "geoPoint": {"lat": 50.51155, "lon": 12.40083}}, {"facility": "GSK Investigational Site", "city": "Boehlen", "state": "Sachsen", "zip": "04564", "country": "Germany"}, {"facility": "GSK Investigational Site", "city": "Delitzsch", "state": "Sachsen", "zip": "04509", "country": "Germany", "geoPoint": {"lat": 51.52546, "lon": 12.34284}}, {"facility": "GSK Investigational Site", "city": "Leipzig", "state": "Sachsen", "zip": "04357", "country": "Germany", "geoPoint": {"lat": 51.33962, "lon": 12.37129}}, {"facility": "GSK Investigational Site", "city": "Meissen", "state": "Sachsen", "zip": "1662", "country": "Germany", "geoPoint": {"lat": 51.16158, "lon": 13.4737}}, {"facility": "GSK Investigational Site", "city": "Klappholz", "state": "Schleswig-Holstein", "zip": "24860", "country": "Germany", "geoPoint": {"lat": 54.61667, "lon": 9.55}}, {"facility": "GSK Investigational Site", "city": "Reinfeld", "state": "Schleswig-Holstein", "zip": "23858", "country": "Germany", "geoPoint": {"lat": 53.83184, "lon": 10.49126}}, {"facility": "GSK Investigational Site", "city": "Berlin", "zip": "10629", "country": "Germany", "geoPoint": {"lat": 52.52437, "lon": 13.41053}}, {"facility": "GSK Investigational Site", "city": "Berlin", "zip": "10787", "country": "Germany", "geoPoint": {"lat": 52.52437, "lon": 13.41053}}, {"facility": "GSK Investigational Site", "city": "Berlin", "zip": "12099", "country": "Germany", "geoPoint": {"lat": 52.52437, "lon": 13.41053}}, {"facility": "GSK Investigational Site", "city": "Berlin", "zip": "12157", "country": "Germany", "geoPoint": {"lat": 52.52437, "lon": 13.41053}}, {"facility": "GSK Investigational Site", "city": "Berlin", "zip": "12165", "country": "Germany", "geoPoint": {"lat": 52.52437, "lon": 13.41053}}, {"facility": "GSK Investigational Site", "city": "Berlin", "zip": "13086", "country": "Germany", "geoPoint": {"lat": 52.52437, "lon": 13.41053}}, {"facility": "GSK Investigational Site", "city": "Berlin", "zip": "13156", "country": "Germany", "geoPoint": {"lat": 52.52437, "lon": 13.41053}}, {"facility": "GSK Investigational Site", "city": "Berlin", "zip": "13187", "country": "Germany", "geoPoint": {"lat": 52.52437, "lon": 13.41053}}, {"facility": "GSK Investigational Site", "city": "Berlin", "zip": "13353", "country": "Germany", "geoPoint": {"lat": 52.52437, "lon": 13.41053}}, {"facility": "GSK Investigational Site", "city": "Berlin", "zip": "14050", "country": "Germany", "geoPoint": {"lat": 52.52437, "lon": 13.41053}}, {"facility": "GSK Investigational Site", "city": "Hamburg", "zip": "20354", "country": "Germany", "geoPoint": {"lat": 53.57532, "lon": 10.01534}}, {"facility": "GSK Investigational Site", "city": "Hamburg", "zip": "22143", "country": "Germany", "geoPoint": {"lat": 53.57532, "lon": 10.01534}}, {"facility": "GSK Investigational Site", "city": "Hamburg", "zip": "22335", "country": "Germany", "geoPoint": {"lat": 53.57532, "lon": 10.01534}}, {"facility": "GSK Investigational Site", "city": "Hamburg", "zip": "22767", "country": "Germany", "geoPoint": {"lat": 53.57532, "lon": 10.01534}}, {"facility": "GSK Investigational Site", "city": "Baja", "zip": "6500", "country": "Hungary", "geoPoint": {"lat": 46.17496, "lon": 18.95639}}, {"facility": "GSK Investigational Site", "city": "Balassagyarmat", "zip": "2660", "country": "Hungary", "geoPoint": {"lat": 48.07296, "lon": 19.29614}}, {"facility": "GSK Investigational Site", "city": "Budapest", "zip": "1089", "country": "Hungary", "geoPoint": {"lat": 47.49801, "lon": 19.03991}},