{"protocolSection": {"identificationModule": {"nctId": "NCT03315143", "orgStudyIdInfo": {"id": "EFC14875"}, "secondaryIdInfos": [{"id": "2017-002644-32"}, {"id": "U1111-1187-8703", "type": "OTHER", "domain": "UTN"}], "organization": {"fullName": "Lexicon Pharmaceuticals", "class": "INDUSTRY"}, "briefTitle": "Effect of Sotagliflozin on Cardiovascular and Renal Events in Participants With Type 2 Diabetes and Moderate Renal Impairment Who Are at Cardiovascular Risk", "officialTitle": "A Randomized, Double-blind, Placebo-controlled, Parallel-group, Multicenter Study to Demonstrate the Effects of Sotagliflozin on Cardiovascular and Renal Events in Patients With Type 2 Diabetes, Cardiovascular Risk Factors and Moderately Impaired Renal Function", "acronym": "SCORED"}, "statusModule": {"statusVerifiedDate": "2022-09", "overallStatus": "TERMINATED", "whyStopped": "study terminated due to business decision", "expandedAccessInfo": {"hasExpandedAccess": false}, "startDateStruct": {"date": "2017-12-19", "type": "ACTUAL"}, "primaryCompletionDateStruct": {"date": "2020-07-08", "type": "ACTUAL"}, "completionDateStruct": {"date": "2020-07-08", "type": "ACTUAL"}, "studyFirstSubmitDate": "2017-10-16", "studyFirstSubmitQcDate": "2017-10-16", "studyFirstPostDateStruct": {"date": "2017-10-19", "type": "ACTUAL"}, "resultsFirstSubmitDate": "2022-09-30", "resultsFirstSubmitQcDate": "2022-09-30", "resultsFirstPostDateStruct": {"date": "2022-10-28", "type": "ACTUAL"}, "dispFirstSubmitDate": "2020-10-23", "dispFirstSubmitQcDate": "2020-10-23", "dispFirstPostDateStruct": {"date": "2020-10-28", "type": "ACTUAL"}, "lastUpdateSubmitDate": "2022-09-30", "lastUpdatePostDateStruct": {"date": "2022-10-28", "type": "ACTUAL"}}, "sponsorCollaboratorsModule": {"responsibleParty": {"type": "SPONSOR"}, "leadSponsor": {"name": "Lexicon Pharmaceuticals", "class": "INDUSTRY"}, "collaborators": [{"name": "Sanofi", "class": "INDUSTRY"}]}, "oversightModule": {"oversightHasDmc": true, "isFdaRegulatedDrug": true, "isFdaRegulatedDevice": false, "isUsExport": false}, "descriptionModule": {"briefSummary": "The primary objective of the study was to compare the effect of sotagliflozin to placebo on total occurrences of cardiovascular (CV) death, hospitalization for heart failure \\[HHF\\], and urgent visit for heart failure \\[HF\\] in participants with type 2 diabetes, cardiovascular risk factors, and moderate to severely impaired renal function."}, "conditionsModule": {"conditions": ["Heart Failure", "Type 2 Diabetes Mellitus", "Chronic Kidney Diseases"]}, "designModule": {"studyType": "INTERVENTIONAL", "phases": ["PHASE3"], "designInfo": {"allocation": "RANDOMIZED", "interventionModel": "PARALLEL", "primaryPurpose": "PREVENTION", "maskingInfo": {"masking": "QUADRUPLE", "whoMasked": ["PARTICIPANT", "CARE_PROVIDER", "INVESTIGATOR", "OUTCOMES_ASSESSOR"]}}, "enrollmentInfo": {"count": 10584, "type": "ACTUAL"}}, "armsInterventionsModule": {"armGroups": [{"label": "Sotagliflozin", "type": "EXPERIMENTAL", "description": "Sotagliflozin 200 mg tablet once daily, with possible up-titration in the first 6 months to 400 mg, for up to 28.9 months.", "interventionNames": ["Drug: Sotagliflozin"]}, {"label": "Placebo", "type": "PLACEBO_COMPARATOR", "description": "Matching placebo to sotagliflozin 200 mg once daily, with possible up-titration in the first 6 months to matching placebo to sotagliflozin 400 mg, for up to 29.6 months.", "interventionNames": ["Drug: Placebo"]}], "interventions": [{"type": "DRUG", "name": "Sotagliflozin", "description": "Sotagliflozin was administered as a tablet(s), orally once daily.", "armGroupLabels": ["Sotagliflozin"], "otherNames": ["SAR439954"]}, {"type": "DRUG", "name": "Placebo", "description": "Placebo was administered as a tablet(s) (identical to the sotagliflozin tablet in appearance), orally once daily.", "armGroupLabels": ["Placebo"]}]}, "outcomesModule": {"primaryOutcomes": [{"measure": "Number of Total Occurrences of Cardiovascular (CV) Death, Hospitalizations for Heart Failure (HHF) and Urgent Visits for Heart Failure (HF)", "description": "Combined endpoint of the total number of occurrences (first and potentially subsequent) of CV death, HHF, and urgent HF visits after randomization. Events that occurred during the study were calculated as the total number of events per 100 person-years of follow-up.", "timeFrame": "Up to 30 months"}], "secondaryOutcomes": [{"measure": "Total Number of Occurrences of HHF and Urgent HF Visits", "description": "Combined endpoint of the total occurrences (first and potentially subsequent) of HHF and urgent HF visits after randomization. Events that occurred during the study were calculated as the total number of events per 100 person-years of follow-up.", "timeFrame": "Up to 30 months"}, {"measure": "Number of Deaths From Cardiovascular Causes", "description": "Number of events that occurred during the study were calculated as the total number of events per 100 person-years of follow-up.", "timeFrame": "Up to 30 months"}, {"measure": "Total Number of Occurrences of CV Death, HHF, Non-fatal Myocardial Infarction and Non-fatal Stroke", "description": "Combined endpoint of the total number of occurrences (first and potentially subsequent) of CV death, HHF, non-fatal stroke, and non-fatal myocardial infarction after randomization. Events that occurred during the study were calculated as the total number of events per 100 person-years of follow-up.", "timeFrame": "Up to 30 months"}, {"measure": "Total Number of Occurrences of HHF, Urgent HF Visit, CV Death, and HF While Hospitalized", "description": "Combined endpoint of the total number of occurrences (first and potentially subsequent) after randomization of HHF, urgent HF visits, CV Death, and HF while hospitalized. Events that occurred during the study were calculated as the total number of events per 100 person-years of follow-up.", "timeFrame": "Up to 30 months"}, {"measure": "Number of Occurrences After Randomization of the Composite of Sustained \u226550% Decrease in Estimated Glomerular Filtration Rate (eGFR) From Baseline (for \u226530 Days), Chronic Dialysis, Renal Transplant, or Sustained eGFR <15 mL/Min/1.73 m^2 (for \u226530 Days)", "description": "Events that occurred during the study were calculated as the total number of events per 100 person-years of follow-up.", "timeFrame": "Up to 30 months"}, {"measure": "Number of Deaths From Any Cause", "description": "Number of events that occurred during the study were calculated as the total number of events per 100 person-years of follow-up.", "timeFrame": "Up to 30 months"}, {"measure": "Total Number of Occurrences of CV Death, Non-fatal Myocardial Infarction and Non-fatal Stroke", "description": "Combined endpoint of the total number of occurrences (first and potentially subsequent) of CV death and urgent HF visits after randomization. Events that occurred during the study were calculated as the total number of events per 100 person-years of follow-up.", "timeFrame": "Up to 30 months"}]}, "eligibilityModule": {"eligibilityCriteria": "Inclusion criteria :\n\n* Type 2 Diabetes Mellitus with glycosylated hemoglobin (HbA1c) \u22657%.\n* Estimated glomerular filtration rate (eGFR) \u226525 and \u226460 milliliter/minute (mL/min)/1.73 square meter (m\\^2).\n* Age 18 years or older with at least one major cardiovascular risk factor or age 55 years or older with at least two minor cardiovascular risk factors.\n* Signed written informed consent.\n\nExclusion criteria:\n\n* Antihyperglycemic treatment has not been stable within 12 weeks prior to screening.\n* Planned coronary procedure or surgery after randomization.\n* Lower extremity complications (such as skin ulcer, infection, osteomyelitis, and gangrene) identified during screening and requiring treatment at randomization.\n* Planning to start a sodium-glucose linked transporter-2 (SGLT2) inhibitor during the study.\n\nThe above information is not intended to contain all considerations relevant to a participant's potential participation in a clinical trial.", "healthyVolunteers": false, "sex": "ALL", "minimumAge": "18 Years", "stdAges": ["ADULT", "OLDER_ADULT"]}, "contactsLocationsModule": {"overallOfficials": [{"name": "Suman Wason, MD", "affiliation": "Lexicon Pharmaceuticals, Inc.", "role": "STUDY_DIRECTOR"}], "locations": [{"facility": "Investigational Site Number 8400017", "city": "Birmingham", "state": "Alabama", "zip": "35205", "country": "United States", "geoPoint": {"lat": 33.52066, "lon": -86.80249}}, {"facility": "Investigational Site Number 8400096", "city": "Sheffield", "state": "Alabama", "zip": "35660", "country": "United States", "geoPoint": {"lat": 34.76509, "lon": -87.69864}}, {"facility": "Investigational Site Number 8400004", "city": "Mesa", "state": "Arizona", "zip": "85206", "country": "United States", "geoPoint": {"lat": 33.42227, "lon": -111.82264}}, {"facility": "Investigational Site Number 8400059", "city": "Mesa", "state": "Arizona", "zip": "85210", "country": "United States", "geoPoint": {"lat": 33.42227, "lon": -111.82264}}, {"facility": "Investigational Site Number 8400021", "city": "Peoria", "state": "Arizona", "zip": "85381", "country": "United States", "geoPoint": {"lat": 33.5806, "lon": -112.23738}}, {"facility": "Investigational Site Number 8400014", "city": "Surprise", "state": "Arizona", "zip": "85374", "country": "United States", "geoPoint": {"lat": 33.63059, "lon": -112.33322}}, {"facility": "Investigational Site Number 8400071", "city": "Little Rock", "state": "Arkansas", "zip": "72211", "country": "United States", "geoPoint": {"lat": 34.74648, "lon": -92.28959}}, {"facility": "Investigational Site Number 8400039", "city": "Beverly Hills", "state": "California", "zip": "90211", "country": "United States", "geoPoint": {"lat": 34.07362, "lon": -118.40036}}, {"facility": "Investigational Site Number 8400042", "city": "Concord", "state": "California", "zip": "94520", "country": "United States", "geoPoint": {"lat": 37.97798, "lon": -122.03107}}, {"facility": "Investigational Site Number 8400089", "city": "Fresno", "state": "California", "zip": "93720", "country": "United States", "geoPoint": {"lat": 36.74773, "lon": -119.77237}}, {"facility": "Investigational Site Number 8400006", "city": "Huntington Park", "state": "California", "zip": "90255", "country": "United States", "geoPoint": {"lat": 33.98168, "lon": -118.22507}}, {"facility": "Investigational Site Number 8400036", "city": "Long Beach", "state": "California", "zip": "90807", "country": "United States", "geoPoint": {"lat": 33.76696, "lon": -118.18923}}, {"facility": "Investigational Site Number 8400073", "city": "Los Angeles", "state": "California", "zip": "90017", "country": "United States", "geoPoint": {"lat": 34.05223, "lon": -118.24368}}, {"facility": "Investigational Site Number 8400084", "city": "Los Angeles", "state": "California", "zip": "90022-4302", "country": "United States", "geoPoint": {"lat": 34.05223, "lon": -118.24368}}, {"facility": "Investigational Site Number 8400035", "city": "Los Gatos", "state": "California", "zip": "95032", "country": "United States", "geoPoint": {"lat": 37.22661, "lon": -121.97468}}, {"facility": "Investigational Site Number 8400043", "city": "Northridge", "state": "California", "zip": "91325", "country": "United States", "geoPoint": {"lat": 34.22834, "lon": -118.53675}}, {"facility": "Investigational Site Number 8400025", "city": "Sacramento", "state": "California", "zip": "95821", "country": "United States", "geoPoint": {"lat": 38.58157, "lon": -121.4944}}, {"facility": "Investigational Site Number 8400018", "city": "San Dimas", "state": "California", "zip": "91713", "country": "United States", "geoPoint": {"lat": 34.10668, "lon": -117.80673}}, {"facility": "Investigational Site Number 8400070", "city": "Temecula", "state": "California", "zip": "92591", "country": "United States", "geoPoint": {"lat": 33.49364, "lon": -117.14836}}, {"facility": "Investigational Site Number 8400013", "city": "Waterbury", "state": "Connecticut", "zip": "06708", "country": "United States", "geoPoint": {"lat": 41.55815, "lon": -73.0515}}, {"facility": "Investigational Site Number 8400095", "city": "Bradenton", "state": "Florida", "zip": "34209", "country": "United States", "geoPoint": {"lat": 27.49893, "lon": -82.57482}}, {"facility": "Investigational Site Number 8400090", "city": "Clearwater", "state": "Florida", "zip": "33756", "country": "United States", "geoPoint": {"lat": 27.96585, "lon": -82.8001}}, {"facility": "Investigational Site Number 8400121", "city": "Clearwater", "state": "Florida", "zip": "33756", "country": "United States", "geoPoint": {"lat": 27.96585, "lon": -82.8001}}, {"facility": "Investigational Site Number 8400049", "city": "Cooper City", "state": "Florida", "zip": "33024", "country": "United States", "geoPoint": {"lat": 26.05731, "lon": -80.27172}}, {"facility": "Investigational Site Number 8400092", "city": "Hialeah", "state": "Florida", "zip": "33012", "country": "United States", "geoPoint": {"lat": 25.8576, "lon": -80.27811}}, {"facility": "Investigational Site Number 8400026", "city": "Hollywood", "state": "Florida", "zip": "33024", "country": "United States", "geoPoint": {"lat": 26.0112, "lon": -80.14949}}, {"facility": "Investigational Site Number 8400134", "city": "Jacksonville", "state": "Florida", "zip": "32204", "country": "United States", "geoPoint": {"lat": 30.33218, "lon": -81.65565}}, {"facility": "Investigational Site Number 8400055", "city": "Jacksonville", "state": "Florida", "zip": "32207-4966", "country": "United States", "geoPoint": {"lat": 30.33218, "lon": -81.65565}}, {"facility": "Investigational Site Number 8400056", "city": "Jacksonville", "state": "Florida", "zip": "32216", "country": "United States", "geoPoint": {"lat": 30.33218, "lon": -81.65565}}, {"facility": "Investigational Site Number 8400031", "city": "Jacksonville", "state": "Florida", "zip": "32277", "country": "United States", "geoPoint": {"lat": 30.33218, "lon": -81.65565}}, {"facility": "Investigational Site Number 8400037", "city": "Maitland", "state": "Florida", "zip": "32751", "country": "United States", "geoPoint": {"lat": 28.62778, "lon": -81.36312}}, {"facility": "Investigational Site Number 8400078", "city": "Miami", "state": "Florida", "zip": "33126", "country": "United States", "geoPoint": {"lat": 25.77427, "lon": -80.19366}}, {"facility": "Investigational Site Number 8400117", "city": "Miami", "state": "Florida", "zip": "33135", "country": "United States", "geoPoint": {"lat": 25.77427, "lon": -80.19366}}, {"facility": "Investigational Site Number 8400119", "city": "Miami", "state": "Florida", "zip": "33135", "country": "United States", "geoPoint": {"lat": 25.77427, "lon": -80.19366}}, {"facility": "Investigational Site Number 8400118", "city": "Miami", "state": "Florida", "zip": "33165", "country": "United States", "geoPoint": {"lat": 25.77427, "lon": -80.19366}}, {"facility": "Investigational Site Number 8400105", "city": "Miami", "state": "Florida", "zip": "33174", "country": "United States", "geoPoint": {"lat": 25.77427, "lon": -80.19366}}, {"facility": "Investigational Site Number 8400120", "city": "Miami", "state": "Florida", "zip": "33176", "country": "United States", "geoPoint": {"lat": 25.77427, "lon": -80.19366}}, {"facility": "Investigational Site Number 8400088", "city": "North Miami Beach", "state": "Florida", "zip": "33162", "country": "United States", "geoPoint": {"lat": 25.93315, "lon": -80.16255}}, {"facility": "Investigational Site Number 8400106", "city": "Opa-locka", "state": "Florida", "zip": "33054", "country": "United States", "geoPoint": {"lat": 25.90232, "lon": -80.25033}}, {"facility": "Investigational Site Number 8400063", "city": "Ormond Beach", "state": "Florida", "zip": "32174", "country": "United States", "geoPoint": {"lat": 29.28581, "lon": -81.05589}}, {"facility": "Investigational Site Number 8400087", "city": "Palm Harbor", "state": "Florida", "zip": "34684-3609", "country": "United States", "geoPoint": {"lat": 28.07807, "lon": -82.76371}}, {"facility": "Investigational Site Number 8400058", "city": "Saint Petersburg", "state": "Florida", "zip": "33713", "country": "United States", "geoPoint": {"lat": 27.77086, "lon": -82.67927}}, {"facility": "Investigational Site Number 8400108", "city": "Spring Hill", "state": "Florida", "zip": "34609", "country": "United States", "geoPoint": {"lat": 28.47688, "lon": -82.52546}}, {"facility": "Investigational Site Number 8400051", "city": "Tampa", "state": "Florida", "zip": "33624", "country": "United States", "geoPoint": {"lat": 27.94752, "lon": -82.45843}}, {"facility": "Investigational Site Number 8400123", "city": "Atlanta", "state": "Georgia", "zip": "30303", "country": "United States", "geoPoint": {"lat": 33.749, "lon": -84.38798}}, {"facility": "Investigational Site Number 8400076", "city": "Roswell", "state": "Georgia", "zip": "30076", "country": "United States", "geoPoint": {"lat": 34.02316, "lon": -84.36159}}, {"facility": "Investigational Site Number 8400033", "city": "Honolulu", "state": "Hawaii", "zip": "96814", "country": "United States", "geoPoint": {"lat": 21.30694, "lon": -157.85833}}, {"facility": "Investigational Site Number 8400085", "city": "Arlington Heights", "state": "Illinois", "zip": "60005", "country": "United States", "geoPoint": {"lat": 42.08836, "lon": -87.98063}}, {"facility": "Investigational Site Number 8400104", "city": "Chicago", "state": "Illinois", "zip": "60611", "country": "United States", "geoPoint": {"lat": 41.85003, "lon": -87.65005}}, {"facility": "Investigational Site Number 8400027", "city": "Chicago", "state": "Illinois", "zip": "60612", "country": "United States", "geoPoint": {"lat": 41.85003, "lon": -87.65005}}, {"facility": "Investigational Site Number 8400124", "city": "Chicago", "state": "Illinois", "zip": "60612", "country": "United States", "geoPoint": {"lat": 41.85003, "lon": -87.65005}}, {"facility": "Investigational Site Number 8400001", "city": "Chicago", "state": "Illinois", "zip": "60616", "country": "United States", "geoPoint": {"lat": 41.85003, "lon": -87.65005}}, {"facility": "Investigational Site Number 8400052", "city": "Crystal Lake", "state": "Illinois", "zip": "60012", "country": "United States", "geoPoint": {"lat": 42.24113, "lon": -88.3162}}, {"facility": "Investigational Site Number 8400028", "city": "Springfield", "state": "Illinois", "zip": "62711", "country": "United States", "geoPoint": {"lat": 39.80172, "lon": -89.64371}}, {"facility": "Investigational Site Number 8400125", "city": "Michigan City", "state": "Indiana", "zip": "46360", "country": "United States", "geoPoint": {"lat": 41.70754, "lon": -86.89503}}, {"facility": "Investigational Site Number 8400098", "city": "Valparaiso", "state": "Indiana", "zip": "46383", "country": "United States", "geoPoint": {"lat": 41.47309, "lon": -87.06114}}, {"facility": "Investigational Site Number 8400003", "city": "Des Moines", "state": "Iowa", "zip": "50314", "country": "United States", "geoPoint": {"lat": 41.60054, "lon": -93.60911}}, {"facility": "Investigational Site Number 8400081", "city": "Topeka", "state": "Kansas", "zip": "66606", "country": "United States", "geoPoint": {"lat": 39.04833, "lon": -95.67804}}, {"facility": "Investigational Site Number 8400041", "city": "Louisville", "state": "Kentucky", "zip": "40213", "country": "United States", "geoPoint": {"lat": 38.25424, "lon": -85.75941}}, {"facility": "Investigational Site Number 8400080", "city": "Bangor", "state": "Maine", "zip": "04401", "country": "United States", "geoPoint": {"lat": 44.80118, "lon": -68.77781}}, {"facility": "Investigational Site Number 8400002", "city": "Flint", "state": "Michigan", "zip": "48504", "country": "United States", "geoPoint": {"lat": 43.01253, "lon": -83.68746}}, {"facility": "Investigational Site Number 8400069", "city": "Flint", "state": "Michigan", "zip": "48532-3447", "country": "United States", "geoPoint": {"lat": 43.01253, "lon": -83.68746}}, {"facility": "Investigational Site Number 8400016", "city": "Troy", "state": "Michigan", "zip": "48098", "country": "United States", "geoPoint": {"lat": 42.60559, "lon": -83.14993}}, {"facility": "Investigational Site Number 8400023", "city": "Saint Cloud", "state": "Minnesota", "zip": "56303", "country": "United States", "geoPoint": {"lat": 45.5608, "lon": -94.16249}}, {"facility": "Investigational Site Number 8400066", "city": "Kansas City", "state": "Missouri", "zip": "64111", "country": "United States", "geoPoint": {"lat": 39.09973, "lon": -94.57857}}, {"facility": "Investigational Site Number 8400024", "city": "Saint Louis", "state": "Missouri", "zip": "63136", "country": "United States", "geoPoint": {"lat": 38.62727, "lon": -90.19789}}, {"facility": "Investigational Site Number 8400130", "city": "Washington", "state": "Missouri", "zip": "63090", "country": "United States", "geoPoint": {"lat": 38.55811, "lon": -91.01209}}, {"facility": "Investigational Site Number 8400045", "city": "Omaha", "state": "Nebraska", "zip": "68198-4100", "country": "United States", "geoPoint": {"lat": 41.25626, "lon": -95.94043}}, {"facility": "Investigational Site Number 8400009", "city": "Las Vegas", "state": "Nevada", "zip": "89148", "country": "United States", "geoPoint": {"lat": 36.17497, "lon": -115.13722}}, {"facility": "Investigational Site Number 8400101", "city": "Albany", "state": "New York", "zip": "12206", "country": "United States", "geoPoint": {"lat": 42.65258, "lon": -73.75623}}, {"facility": "Investigational Site Number 8400061", "city": "Laurelton", "state": "New York", "zip": "11413", "country": "United States", "geoPoint": {"lat": 40.67016, "lon": -73.74664}}, {"facility": "Investigational Site Number 8400046", "city": "New York", "state": "New York", "zip": "10029-6501", "country": "United States", "geoPoint": {"lat": 40.71427, "lon": -74.00597}}, {"facility": "Investigational Site Number 8400112", "city": "Rosedale", "state": "New York", "zip": "11422", "country": "United States", "geoPoint": {"lat": 40.66205, "lon": -73.73541}}, {"facility": "Investigational Site Number 8400062", "city": "Smithtown", "state": "New York", "zip": "11787", "country": "United States", "geoPoint": {"lat": 40.85593, "lon": -73.20067}}, {"facility": "Investigational Site Number 8400079", "city": "Greenville", "state": "North Carolina", "zip": "27834-5704", "country": "United States", "geoPoint": {"lat": 35.61266, "lon": -77.36635}}, {"facility": "Investigational Site Number 8400020", "city": "Morehead City", "state": "North Carolina", "zip": "28557", "country": "United States", "geoPoint": {"lat": 34.72294, "lon": -76.72604}}, {"facility": "Investigational Site Number 8400048", "city": "Morehead City", "state": "North Carolina", "zip": "28557", "country": "United States", "geoPoint": {"lat": 34.72294, "lon": -76.72604}}, {"facility": "Investigational Site Number 8400010", "city": "Morganton", "state": "North Carolina", "zip": "28655", "country": "United States", "geoPoint": {"lat": 35.74541, "lon": -81.68482}}, {"facility": "Investigational Site Number 8400072", "city": "Fargo", "state": "North Dakota", "zip": "58103", "country": "United States", "geoPoint": {"lat": 46.87719, "lon": -96.7898}}, {"facility": "Investigational Site Number 8400038", "city": "Cincinnati", "state": "Ohio", "zip": "45219", "country": "United States", "geoPoint": {"lat": 39.12713, "lon": -84.51435}}, {"facility": "Investigational Site Number 8400007", "city": "Cincinnati", "state": "Ohio", "zip": "45241", "country": "United States", "geoPoint": {"lat": 39.12713, "lon": -84.51435}}, {"facility": "Investigational Site Number 8400015", "city": "Columbus", "state": "Ohio", "zip": "43210", "country": "United States", "geoPoint": {"lat": 39.96118, "lon": -82.99879}}, {"facility": "Investigational Site Number 8400113", "city": "Lorain", "state": "Ohio", "zip": "44053", "country": "United States", "geoPoint": {"lat": 41.45282, "lon": -82.18237}}, {"facility": "Investigational Site Number 8400011", "city": "Mentor", "state": "Ohio", "zip": "44060", "country": "United States", "geoPoint": {"lat": 41.66616, "lon": -81.33955}}, {"facility": "Investigational Site Number 8400109", "city": "Bend", "state": "Oregon", "zip": "97702", "country": "United States", "geoPoint": {"lat": 44.05817, "lon": -121.31531}}, {"facility": "Investigational Site Number 8400047", "city": "Beaver", "state": "Pennsylvania", "zip": "15009", "country": "United States", "geoPoint": {"lat": 40.69534, "lon": -80.30478}}, {"facility": "Investigational Site Number 8400019", "city": "Greensburg", "state": "Pennsylvania", "zip": "15601", "country": "United States", "geoPoint": {"lat": 40.30146, "lon": -79.53893}}, {"facility": "Investigational Site Number 8400097", "city": "Indiana", "state": "Pennsylvania", "zip": "15701-3578", "country": "United States", "geoPoint": {"lat": 40.62146, "lon": -79.15253}}, {"facility": "Investigational Site Number 8400032", "city": "Levittown", "state": "Pennsylvania", "zip": "19056-2404", "country": "United States", "geoPoint": {"lat": 40.15511, "lon": -74.82877}}, {"facility": "Investigational Site Number 8400053", "city": "Philadelphia", "state": "Pennsylvania", "zip": "19107", "country": "United States", "geoPoint": {"lat": 39.95233, "lon": -75.16379}}, {"facility": "Investigational Site Number 8400012", "city": "Pittsburgh", "state": "Pennsylvania", "zip": "15212", "country": "United States", "geoPoint": {"lat": 40.44062, "lon": -79.99589}}, {"facility": "Investigational Site Number 8400064", "city": "Anderson", "state": "South Carolina", "zip": "29621", "country": "United States", "geoPoint": {"lat": 34.50344, "lon": -82.65013}}, {"facility": "Investigational Site Number 8400030", "city": "Greer", "state": "South Carolina", "zip": "29651", "country": "United States", "geoPoint": {"lat": 34.93873, "lon": -82.22706}}, {"facility": "Investigational Site Number 8400029", "city": "Myrtle Beach", "state": "South Carolina", "zip": "29572", "country": "United States", "geoPoint": {"lat": 33.68906, "lon": -78.88669}}, {"facility": "Investigational Site Number 8400040", "city": "Memphis", "state": "Tennessee", "zip": "38163", "country": "United States", "geoPoint": {"lat": 35.14953, "lon": -90.04898}}, {"facility": "Investigational Site Number 8400114", "city": "Arlington", "state": "Texas", "zip": "76015", "country": "United States", "geoPoint": {"lat": 32.73569, "lon": -97.10807}}, {"facility": "Investigational Site Number 8400067", "city": "Corpus Christi", "state": "Texas", "zip": "78814", "country": "United States", "geoPoint": {"lat": 27.80058, "lon": -97.39638}}, {"facility": "Investigational Site Number 8400082", "city": "Dallas", "state": "Texas", "zip": "75231", "country": "United States", "geoPoint": {"lat": 32.78306, "lon": -96.80667}}, {"facility": "Investigational Site Number 8400022", "city": "El Paso", "state": "Texas", "zip": "79935", "country": "United States", "geoPoint": {"lat": 31.75872, "lon": -106.48693}}, {"facility": "Investigational Site Number 8400099", "city": "Houston", "state": "Texas", "zip": "77043", "country": "United States", "geoPoint": {"lat": 29.76328, "lon": -95.36327}}, {"facility": "Investigational Site Number 8400103", "city": "Houston", "state": "Texas", "zip": "77070", "country": "United States", "geoPoint": {"lat": 29.76328, "lon": -95.36327}}, {"facility": "Investigational Site Number 8400086", "city": "Katy", "state": "Texas", "zip": "77450", "country": "United States", "geoPoint": {"lat": 29.78579, "lon": -95.8244}}, {"facility": "Investigational Site Number 8400100", "city": "Mesquite", "state": "Texas", "zip": "75150", "country": "United States", "geoPoint": {"lat": 32.7668, "lon": -96.59916}}, {"facility": "Investigational Site Number 8400094", "city": "Plano", "state": "Texas", "zip": "75093", "country": "United States", "geoPoint": {"lat": 33.01984, "lon": -96.69889}}, {"facility": "Investigational Site Number 8400116", "city": "San Antonio", "state": "Texas", "zip": "78224", "country": "United States", "geoPoint": {"lat": 29.42412, "lon": -98.49363}}, {"facility": "Investigational Site Number 8400091", "city": "Waco", "state": "Texas", "zip": "76710", "country": "United States", "geoPoint": {"lat": 31.54933, "lon": -97.14667}}, {"facility": "Investigational Site Number 8400065", "city": "Bountiful", "state": "Utah", "zip": "84010-7717", "country": "United States", "geoPoint": {"lat": 40.88939, "lon": -111.88077}}, {"facility": "Investigational Site Number 8400131", "city": "Ogden", "state": "Utah", "zip": "84405", "country": "United States", "geoPoint": {"lat": 41.223, "lon": -111.97383}}, {"facility": "Investigational Site Number 8400093", "city": "Bennington", "state": "Vermont", "zip": "05201", "country": "United States", "geoPoint": {"lat": 42.87813, "lon": -73.19677}}, {"facility": "Investigational Site Number 8400060", "city": "South Burlington", "state": "Vermont", "zip": "05403", "country": "United States", "geoPoint": {"lat": 44.46699, "lon": -73.17096}}, {"facility": "Investigational Site Number 8400133", "city": "Danville", "state": "Virginia", "zip": "24541-2834", "country": "United States", "geoPoint": {"lat": 36.58597, "lon": -79.39502}}, {"facility": "Investigational Site Number 8400054", "city": "Fairfax", "state": "Virginia", "zip": "22039", "country": "United States", "geoPoint": {"lat": 38.84622, "lon": -77.30637}}, {"facility": "Investigational Site Number 8400132", "city": "Falls Church", "state": "Virginia", "zip": "22044", "country": "United States", "geoPoint": {"lat": 38.88233, "lon": -77.17109}}, {"facility": "Investigational Site Number 8400034", "city": "Manassas", "state": "Virginia", "zip": "20110", "country": "United States", "geoPoint": {"lat": 38.75095, "lon": -77.47527}}, {"facility": "Investigational Site Number 8400050", "city": "Norfolk", "state": "Virginia", "zip": "23510", "country": "United States", "geoPoint": {"lat": 36.84681, "lon": -76.28522}}, {"facility": "Investigational Site Number 8400044", "city": "Richmond", "state": "Virginia", "zip": "23235", "country": "United States", "geoPoint": {"lat": 37.55376, "lon": -77.46026}}, {"facility": "Investigational Site Number 8400111", "city": "Richmond", "state": "Virginia", "zip": "23249", "country": "United States", "geoPoint": {"lat": 37.55376, "lon": -77.46026}}, {"facility": "Investigational Site Number 8400083", "city": "Federal Way", "state": "Washington", "zip": "98003", "country": "United States", "geoPoint": {"lat": 47.32232, "lon": -122.31262}}, {"facility": "Investigational Site Number 8400068", "city": "Spokane", "state": "Washington", "zip": "99207", "country": "United States", "geoPoint": {"lat": 47.65966, "lon": -117.42908}}, {"facility": "Investigational Site Number 0320016", "city": "Buenos Aires", "country": "Argentina", "geoPoint": {"lat": -34.61315, "lon": -58.37723}}, {"facility": "Investigational Site Number 0320029", "city": "Buenos Aires", "country": "Argentina", "geoPoint": {"lat": -34.61315, "lon": -58.37723}}, {"facility": "Investigational Site Number 0320017", "city": "Caba", "zip": "1120", "country": "Argentina", "geoPoint": {"lat": -34.61315, "lon": -58.37723}}, {"facility": "Investigational Site Number 0320002", "city": "Caba", "zip": "C1093AAS", "country": "Argentina", "geoPoint": {"lat": -34.61315, "lon": -58.37723}}, {"facility": "Investigational Site Number 0320004", "city": "Caba", "zip": "C1118AAE", "country": "Argentina", "geoPoint": {"lat": -34.61315, "lon": -58.37723}}, {"facility": "Investigational Site Number 0320018", "city": "Caba", "zip": "C1119ACN", "country": "Argentina", "geoPoint": {"lat": -34.61315, "lon": -58.37723}}, {"facility": "Investigational Site Number 0320025", "city": "Caba", "zip": "C1128AAF", "country": "Argentina", "geoPoint": {"lat": -34.61315, "lon": -58.37723}}, {"facility": "Investigational Site Number 0320019", "city": "Caba", "country": "Argentina", "geoPoint": {"lat": -34.61315, "lon": -58.37723}}, {"facility": "Investigational Site Number 0320027", "city": "Capital Federal", "zip": "C1056ABJ", "country": "Argentina", "geoPoint": {"lat": -34.61315, "lon": -58.37723}}, {"facility": "Investigational Site Number 0320015", "city": "Capital Federal", "zip": "C1179AAB", "country": "Argentina", "geoPoint": {"lat": -34.61315, "lon": -58.37723}}, {"facility": "Investigational Site Number 0320014", "city": "Ciudad Autonoma De Bs.As", "zip": "C1428DCO", "country": "Argentina", "geoPoint": {"lat": -34.61315, "lon": -58.37723}}, {"facility": "Investigational Site Number 0320023", "city": "Ciudad Autonoma De Buenos Aire", "zip": "C1204AAD", "country": "Argentina", "geoPoint": {"lat": -34.61315, "lon": -58.37723}}, {"facility": "Investigational Site Number 0320009", "city": "Ciudadela", "zip": "B1702BML", "country": "Argentina", "geoPoint": {"lat": -34.63983, "lon": -58.54246}}, {"facility": "Investigational Site Number 0320001", "city": "Cordoba", "zip": "X5000AAX", "country": "Argentina", "geoPoint": {"lat": -31.4135, "lon": -64.18105}}, {"facility": "Investigational Site Number 0320008", "city": "Coronel Suarez", "zip": "B7540GHD", "country": "Argentina", "geoPoint": {"lat": -37.45467, "lon": -61.93343}}, {"facility": "Investigational Site Number 0320011", "city": "Corrientes", "zip": "W3400AMZ", "country": "Argentina", "geoPoint": {"lat": -27.4806, "lon": -58.8341}}, {"facility": "Investigational Site Number 0320028", "city": "La Plata", "zip": "B1900AXI", "country": "Argentina", "geoPoint": {"lat": -34.92145, "lon": -57.95453}}, {"facility": "Investigational Site Number 0320006", "city": "La Plata", "zip": "B1906ESC", "country": "Argentina", "geoPoint": {"lat": -34.92145, "lon": -57.95453}}, {"facility": "Investigational Site Number 0320024", "city": "Mar Del Plata", "zip": "B7600FZN", "country": "Argentina", "geoPoint": {"lat": -38.00228, "lon": -57.55754}}, {"facility": "Investigational Site Number 0320003", "city": "Mar Del Plata", "zip": "B7600", "country": "Argentina", "geoPoint": {"lat": -38.00228, "lon": -57.55754}}, {"facility": "Investigational Site Number 0320020", "city": "Merlo", "zip": "B1722COV", "country": "Argentina", "geoPoint": {"lat": -32.34288, "lon": -65.01396}}, {"facility": "Investigational Site Number 0320007", "city": "Ramos Mejia", "zip": "B1704ETD", "country": "Argentina", "geoPoint": {"lat": -34.6551, "lon": -58.55318}}, {"facility": "Investigational Site Number 0320030", "city": "Rosario", "zip": "S2000CVD", "country": "Argentina", "geoPoint": {"lat": -32.94682, "lon": -60.63932}}, {"facility": "Investigational Site Number 0320026", "city": "Rosario", "zip": "S2000DEJ", "country": "Argentina", "geoPoint": {"lat": -32.94682, "lon": -60.63932}}, {"facility": "Investigational Site Number 0320012", "city": "Salta", "zip": "4400", "country": "Argentina", "geoPoint": {"lat": -24.7859, "lon": -65.41166}}, {"facility": "Investigational Site Number 0320021", "city": "San Miguel De Tucuman", "zip": "T4000ICL", "country": "Argentina", "geoPoint": {"lat": -26.82414, "lon": -65.2226}}, {"facility": "Investigational Site Number 0320013", "city": "Santa Fe", "zip": "S3000FWO", "country": "Argentina", "geoPoint": {"lat": -31.63333, "lon": -60.7}}, {"facility": "Investigational Site Number 0320022", "city": "Temperley", "zip": "1842", "country": "Argentina", "geoPoint": {"lat": -34.77988, "lon": -58.40312}}, {"facility": "Investigational Site Number 0320005", "city": "Villa Maria", "zip": "X5900JKA", "country": "Argentina", "geoPoint": {"lat": -32.40751, "lon": -63.24016}}, {"facility": "Investigational Site Number 0360014", "city": "Adelaide", "zip": "5000", "country": "Australia", "geoPoint": {"lat": -34.92866, "lon": 138.59863}}, {"facility": "Investigational Site Number 0360004", "city": "Box Hill", "zip": "3128", "country": "Australia", "geoPoint": {"lat": -37.81887, "lon": 145.12545}}, {"facility": "Investigational Site Number 0360015", "city": "Elizabeth Vale", "zip": "5112", "country": "Australia", "geoPoint": {"lat": -34.74857, "lon": 138.66819}}, {"facility": "Investigational Site Number 0360005", "city": "Fitzroy", "zip": "3065", "country": "Australia", "geoPoint": {"lat": -37.79839, "lon": 144.97833}}, {"facility": "Investigational Site Number 0360018", "city": "Fremantle", "zip": "6160", "country": "Australia", "geoPoint": {"lat": -32.05629, "lon": 115.74565}}, {"facility": "Investigational Site Number 0360007", "city": "Fullarton", "zip": "5063", "country": "Australia", "geoPoint": {"lat": -34.951, "lon": 138.629}}, {"facility": "Investigational Site Number 0360002", "city": "Gosford", "zip": "2250", "country": "Australia", "geoPoint": {"lat": -33.4244, "lon": 151.34399}}, {"facility": "Investigational Site Number 0360016", "city": "Heidelberg", "zip": "3081", "country": "Australia", "geoPoint": {"lat": -37.75, "lon": 145.06667}}, {"facility": "Investigational Site Number 0360010", "city": "Herston", "zip": "4029", "country": "Australia", "geoPoint": {"lat": -27.44453, "lon": 153.01852}}, {"facility": "Investigational Site Number 0360009", "city": "Liverpool", "zip": "2170", "country": "Australia", "geoPoint": {"lat": -33.90011, "lon": 150.93328}}, {"facility": "Investigational Site Number 0360017", "city": "Melbourne", "zip": "3004", "country": "Australia", "geoPoint": {"lat": -37.814, "lon": 144.96332}}, {"facility": "Investigational Site Number 0360001", "city": "Merewether", "zip": "2291", "country": "Australia", "geoPoint": {"lat": -32.94801, "lon": 151.74325}}, {"facility": "Investigational Site Number 0360012", "city": "Oaklands Park", "zip": "5046", "country": "Australia", "geoPoint": {"lat": -35.01408, "lon": 138.53841}}, {"facility": "Investigational Site Number 0360011", "city": "Parkville", "zip": "3050", "country": "Australia", "geoPoint": {"lat": -37.78333, "lon": 144.95}}, {"facility": "Investigational Site Number 0360008", "city": "Redcliffe", "zip": "4020", "country": "Australia", "geoPoint": {"lat": -31.93845, "lon": 115.94645}}, {"facility": "Investigational Site Number 0360013", "city": "Sherwood", "zip": "4075", "country": "Australia", "geoPoint": {"lat": -31.06485, "lon": 152.72879}}, {"facility": "Investigational Site Number 0360019", "city": "St Leonards", "zip": "2065", "country": "Australia", "geoPoint": {"lat": -33.82344, "lon": 151.19836}}, {"facility": "Investigational Site Number 0360006", "city": "Wollongong", "zip": "2500", "country": "Australia", "geoPoint": {"lat": -34.424, "lon": 150.89345}}, {"facility": "Investigational Site Number 0560004", "city": "Bonheiden", "zip": "2820", "country": "Belgium", "geoPoint": {"lat": 51.02261, "lon": 4.54714}}, {"facility": "Investigational Site Number 0560005", "city": "Gent", "zip": "9000", "country": "Belgium", "geoPoint": {"lat": 51.05, "lon": 3.71667}}, {"facility": "Investigational Site Number 0560003", "city": "Kortrijk", "zip": "8500", "country": "Belgium", "geoPoint": {"lat": 50.82803, "lon": 3.26487}}, {"facility": "Investigational Site Number 0560002", "city": "La-Louvi\u00e8re", "zip": "7100", "country": "Belgium", "geoPoint": {"lat": 50.48657, "lon": 4.18785}}, {"facility": "Investigational Site Number 0560001", "city": "Leuven", "zip": "3000", "country": "Belgium", "geoPoint": {"lat": 50.87959, "lon": 4.70093}}, {"facility": "Investigational Site Number 0760017", "city": "Blumenau", "zip": "89020-430", "country": "Brazil", "geoPoint": {"lat": -26.91944, "lon": -49.06611}}, {"facility": "Investigational Site Number 0760015", "city": "Brasilia", "zip": "70200-730", "country": "Brazil", "geoPoint": {"lat": -15.77972, "lon": -47.92972}}, {"facility": "Investigational Site Number 0760026", "city": "Brasilia", "zip": "70390-903", "country": "Brazil", "geoPoint": {"lat": -15.77972, "lon": -47.92972}}, {"facility": "Investigational Site Number 0760008", "city": "Campinas", "zip": "13015-001", "country": "Brazil", "geoPoint": {"lat": -22.90556, "lon": -47.06083}}, {"facility": "Investigational Site Number 0760005", "city": "Campinas", "zip": "13060-080", "country": "Brazil", "geoPoint": {"lat": -22.90556, "lon": -47.06083}}, {"facility": "Investigational Site Number 0760018", "city": "Canoas", "zip": "92425-900", "country": "Brazil", "geoPoint": {"lat": -29.91778, "lon": -51.18361}}, {"facility": "Investigational Site Number 0760019", "city": "Curitiba", "zip": "80030-110", "country": "Brazil", "geoPoint": {"lat": -25.42778, "lon": -49.27306}}, {"facility": "Investigational Site Number 0760011", "city": "Curitiba", "zip": "80230-130", "country": "Brazil", "geoPoint": {"lat": -25.42778, "lon": -49.27306}}, {"facility": "Investigational Site Number 0760007", "city": "Curitiba", "zip": "80730-150", "country": "Brazil", "geoPoint": {"lat": -25.42778, "lon": -49.27306}}, {"facility": "Investigational Site Number 0760010", "city": "Fortaleza", "zip": "60115-282", "country": "Brazil", "geoPoint": {"lat": -3.71722, "lon": -38.54306}}, {"facility": "Investigational Site Number 0760002", "city": "Fortaleza", "zip": "60170-320", "country": "Brazil", "geoPoint": {"lat": -3.71722, "lon": -38.54306}}, {"facility": "Investigational Site Number 0760004", "city": "Fortaleza", "zip": "60430-350", "country": "Brazil", "geoPoint": {"lat": -3.71722, "lon": -38.54306}}, {"facility": "Investigational Site Number 0760014", "city": "Passo Fundo", "zip": "99010-180", "country": "Brazil", "geoPoint": {"lat": -28.26278, "lon": -52.40667}}, {"facility": "Investigational Site Number 0760025", "city": "Porto Alegre", "zip": "90020-090", "country": "Brazil", "geoPoint": {"lat": -30.03306, "lon": -51.23}}, {"facility": "Investigational Site Number 0760016", "city": "Porto Alegre", "zip": "90430-001", "country": "Brazil", "geoPoint": {"lat": -30.03306, "lon": -51.23}}, {"facility": "Investigational Site Number 0760024", "city": "Recife", "zip": "52051-380", "country": "Brazil", "geoPoint": {"lat": -8.05389, "lon": -34.88111}}, {"facility": "Investigational Site Number 0760023", "city": "Rio De Janeiro", "zip": "22271-100", "country": "Brazil", "geoPoint": {"lat": -22.90278, "lon": -43.2075}}, {"facility": "Investigational Site Number 0760001", "city": "Sao Jose Do Rio Preto", "zip": "15090-000", "country": "Brazil", "geoPoint": {"lat": -20.81972, "lon": -49.37944}}, {"facility": "Investigational Site Number 0760012", "city": "Sao Jose Dos Campos", "zip": "12243-280", "country": "Brazil", "geoPoint": {"lat": -23.17944, "lon": -45.88694}}, {"facility": "Investigational Site Number 0760020", "city": "Sao Paulo", "zip": "01228-200", "country": "Brazil", "geoPoint": {"lat": -23.5475, "lon": -46.63611}}, {"facility": "Investigational Site Number 0760013", "city": "Sao Paulo", "zip": "04038-002", "country": "Brazil", "geoPoint": {"lat": -23.5475, "lon": -46.63611}}, {"facility": "Investigational Site Number 0760022", "city": "Sao Paulo", "zip": "04266-010", "country": "Brazil", "geoPoint": {"lat": -23.5475, "lon": -46.63611}}, {"facility": "Investigational Site Number 0760006", "city": "Sao Paulo", "zip": "05403-000", "country": "Brazil", "geoPoint": {"lat": -23.5475, "lon": -46.63611}}, {"facility": "Investigational Site Number 0760009", "city": "Sao Paulo", "zip": "05403-000", "country": "Brazil", "geoPoint": {"lat": -23.5475, "lon": -46.63611}}, {"facility": "Investigational Site Number 0760003", "city": "S\u00e3o Paulo", "zip": "01.228-000", "country": "Brazil", "geoPoint": {"lat": -23.5475, "lon": -46.63611}}, {"facility": "Investigational Site Number 0760021", "city": "Vitoria", "zip": "29055 450", "country": "Brazil", "geoPoint": {"lat": -20.31944, "lon": -40.33778}}, {"facility": "Investigational Site Number 1000015", "city": "Blagoevgrad", "zip": "2700", "country": "Bulgaria", "geoPoint": {"lat": 42.01667, "lon": 23.1}}, {"facility": "Investigational Site Number 1000008", "city": "Dobrich", "zip": "MULTIPROFILE HOSPITA", "country": "Bulgaria", "geoPoint": {"lat": 43.56667, "lon": 27.83333}}, {"facility": "Investigational Site Number 1000013", "city": "Gabrovo", "zip": "5300", "country": "Bulgaria", "geoPoint": {"lat": 42.87472, "lon": 25.33417}}, {"facility": "Investigational Site Number 1000003", "city": "Plovdiv", "zip": "4002", "country": "Bulgaria", "geoPoint": {"lat": 42.15, "lon": 24.75}}, {"facility": "Investigational Site Number 1000016", "city": "Ruse", "zip": "7002", "country": "Bulgaria", "geoPoint": {"lat": 43.85639, "lon": 25.97083}}, {"facility": "Investigational Site Number 1000014", "city": "Silistra", "zip": "7500", "country": "Bulgaria", "geoPoint": {"lat": 44.11667, "lon": 27.26667}}, {"facility": "Investigational Site Number 1000007", "city": "Smolyan", "zip": "4700", "country": "Bulgaria", "geoPoint": {"lat": 41.58528, "lon": 24.69194}}, {"facility": "Investigational Site Number 1000011", "city": "Sofia", "zip": "1233", "country": "Bulgaria", "geoPoint": {"lat": 42.69751, "lon": 23.32415}}, {"facility": "Investigational Site Number 1000004", "city": "Sofia", "zip": "1431", "country": "Bulgaria", "geoPoint": {"lat": 42.69751, "lon": 23.32415}}, {"facility": "Investigational Site Number 1000006", "city": "Sofia", "zip": "1431", "country": "Bulgaria", "geoPoint": {"lat": 42.69751, "lon": 23.32415}}, {"facility": "Investigational Site Number 1000012", "city": "Sofia", "zip": "1632", "country": "Bulgaria", "geoPoint": {"lat": 42.69751, "lon": 23.32415}}, {"facility": "Investigational Site Number 1000005", "city": "Sofia", "zip": "1750", "country": "Bulgaria", "geoPoint": {"lat": 42.69751, "lon": 23.32415}}, {"facility": "Investigational Site Number 1000017", "city": "Sofia", "zip": "1784", "country": "Bulgaria", "geoPoint": {"lat": 42.69751, "lon": 23.32415}}, {"facility": "Investigational Site Number 1000001", "city": "Stara Zagora", "zip": "6000", "country": "Bulgaria", "geoPoint": {"lat": 42.43278, "lon": 25.64194}}, {"facility": "Investigational Site Number 1000018", "city": "Stara Zagora", "zip": "6000", "country": "Bulgaria", "geoPoint": {"lat": 42.43278, "lon": 25.64194}}, {"facility": "Investigational Site Number 1240002", "city": "Brampton", "zip": "L6S0C6", "country": "Canada", "geoPoint": {"lat": 43.68341, "lon": -79.76633}}, {"facility": "Investigational Site Number 1240013", "city": "Burlington", "zip": "L7M 4Y1", "country": "Canada", "geoPoint": {"lat": 43.38621, "lon": -79.83713}}, {"facility": "Investigational Site Number 1240021", "city": "Calgary", "zip": "T2T 5C7", "country": "Canada", "geoPoint": {"lat": 51.05011, "lon": -114.08529}}, {"facility": "Investigational Site Number 1240005", "city": "Calgary", "zip": "T2V 4J2", "country": "Canada", "geoPoint": {"lat": 51.05011, "lon": -114.08529}}, {"facility": "Investigational Site Number 1240029", "city": "Concord", "zip": "L4K 4M2", "country": "Canada", "geoPoint": {"lat": 43.80011, "lon": -79.48291}}, {"facility": "Investigational Site Number 1240004", "city": "Edmonton", "zip": "T5A 4L8", "country": "Canada", "geoPoint": {"lat": 53.55014, "lon": -113.46871}}, {"facility": "Investigational Site Number 1240010", "city": "Edmonton", "zip": "T6H 2L4", "country": "Canada", "geoPoint": {"lat": 53.55014, "lon": -113.46871}}, {"facility": "Investigational Site Number 1240027", "city": "Halifax", "zip": "B3H 2Y9", "country": "Canada", "geoPoint": {"lat": 44.64533, "lon": -63.57239}}, {"facility": "Investigational Site Number 1240023", "city": "Hamilton", "zip": "L8N 3Z5", "country": "Canada", "geoPoint": {"lat": 43.25011, "lon": -79.84963}}, {"facility": "Investigational Site Number 1240011", "city": "London", "zip": "N6A 4V2", "country": "Canada", "geoPoint": {"lat": 42.98339, "lon": -81.23304}}, {"facility": "Investigational Site Number 1240019", "city": "Montreal", "zip": "H1T 1C8", "country": "Canada", "geoPoint": {"lat": 45.50884, "lon": -73.58781}}, {"facility": "Investigational Site Number 1240017", "city": "Montreal", "zip": "H4A 2C6", "country": "Canada", "geoPoint": {"lat": 45.50884, "lon": -73.58781}}, {"facility": "Investigational Site Number 1240018", "city": "Montreal", "zip": "H4N 2W2", "country": "Canada", "geoPoint": {"lat": 45.50884, "lon": -73.58781}}, {"facility": "Investigational Site Number 1240007", "city": "Newmarket", "zip": "L3Y 5G8", "country": "Canada", "geoPoint": {"lat": 44.05011, "lon": -79.46631}}, {"facility": "Investigational Site Number 1240026", "city": "Oshawa", "zip": "L1G 2B9", "country": "Canada", "geoPoint": {"lat": 43.90012, "lon": -78.84957}}, {"facility": "Investigational Site Number 1240016", "city": "Oshawa", "zip": "L1J 2K1", "country": "Canada", "geoPoint": {"lat": 43.90012, "lon": -78.84957}}, {"facility": "Investigational Site Number 1240006", "city": "Ottawa", "zip": "K1H7W9", "country": "Canada", "geoPoint": {"lat": 45.41117, "lon": -75.69812}}, {"facility": "Investigational Site Number 1240022", "city": "Quebec", "zip": "G1G 3Z4", "country": "Canada", "geoPoint": {"lat": 46.81228, "lon": -71.21454}}, {"facility": "Investigational Site Number 1240025", "city": "Quebec", "zip": "G1V 4G5", "country": "Canada", "geoPoint": {"lat": 46.81228, "lon": -71.21454}}, {"facility": "Investigational Site Number 1240014", "city": "Quebec", "zip": "G1V 4W2", "country": "Canada", "geoPoint": {"lat": 46.81228, "lon": -71.21454}}, {"facility": "Investigational Site Number 1240003", "city": "Quebec", "zip": "G1W-4R4", "country": "Canada", "geoPoint": {"lat": 46.81228, "lon": -71.21454}}, {"facility": "Investigational Site Number 1240034", "city": "Saint-Charles-Borromee", "zip": "J6E 6J2", "country": "Canada", "geoPoint": {"lat": 46.05007, "lon": -73.46586}}, {"facility": "Investigational Site Number 1240032", "city": "St-Marc-Des-Carrieres", "zip": "G0A 4B0", "country": "Canada", "geoPoint": {"lat": 46.68335, "lon": -72.0491}}, {"facility": "Investigational Site Number 1240033", "city": "St. John'S", "zip": "A1B 3V6", "country": "Canada", "geoPoint": {"lat": 47.56494, "lon": -52.70931}}, {"facility": "Investigational Site Number 1240008", "city": "Sudbury", "zip": "P3E 4H5", "country": "Canada", "geoPoint": {"lat": 46.49, "lon": -80.99001}}, {"facility": "Investigational Site Number 1240031", "city": "Surrey", "zip": "V3V 0C6", "country": "Canada", "geoPoint": {"lat": 49.10635, "lon": -122.82509}}, {"facility": "Investigational Site Number 1240028", "city": "Toronto", "zip": "M6G 1M2", "country": "Canada", "geoPoint": {"lat": 43.70011, "lon": -79.4163}}, {"facility": "Investigational Site Number 1240015", "city": "Trois-Rivieres", "zip": "G8Z 3R9", "country": "Canada", "geoPoint": {"lat": 46.34515, "lon": -72.5477}}, {"facility": "Investigational Site Number 1240001", "city": "Vancouver", "zip": "V5Y 3W2", "country": "Canada", "geoPoint": {"lat": 49.24966, "lon": -123.11934}}, {"facility": "Investigational Site Number 1240030", "city": "Victoria", "zip": "V8R 1B2", "country": "Canada", "geoPoint": {"lat": 48.43294, "lon": -123.3693}}, {"facility": "Investigational Site Number 1520015", "city": "Concepci\u00f3n", "zip": "4070566", "country": "Chile", "geoPoint": {"lat": -36.82699, "lon": -73.04977}}, {"facility": "Investigational Site Number 1520003", "city": "Osorno", "zip": "5311092", "country": "Chile", "geoPoint": {"lat": -40.57395, "lon": -73.13348}}, {"facility": "Investigational Site Number 1520012", "city": "Punta Arenas", "zip": "6210490", "country": "Chile", "geoPoint": {"lat": -53.15483, "lon": -70.91129}}, {"facility": "Investigational Site Number 1520013", "city": "Santiago", "zip": "7500571", "country": "Chile", "geoPoint": {"lat": -33.45694, "lon": -70.64827}}, {"facility": "Investigational Site Number 1520018", "city": "Santiago", "zip": "7500588", "country": "Chile", "geoPoint": {"lat": -33.45694, "lon": -70.64827}}, {"facility": "Investigational Site Number 1520001", "city": "Santiago", "zip": "7500710", "country": "Chile", "geoPoint": {"lat": -33.45694, "lon": -70.64827}}, {"facility": "Investigational Site Number 1520004", "city": "Santiago", "zip": "7500710", "country": "Chile", "geoPoint": {"lat": -33.45694, "lon": -70.64827}}, {"facility": "Investigational Site Number 1520006", "city": "Santiago", "zip": "7500739", "country": "Chile", "geoPoint": {"lat": -33.45694, "lon": -70.64827}}, {"facility": "Investigational Site Number 1520014", "city": "Santiago", "zip": "7591047", "country": "Chile", "geoPoint": {"lat": -33.45694, "lon": -70.64827}}, {"facility": "Investigational Site Number 1520016", "city": "Santiago", "zip": "7650568", "country": "Chile", "geoPoint": {"lat": -33.45694, "lon": -70.64827}}, {"facility": "Investigational Site Number 1520017", "city": "Santiago", "zip": "7770086", "country": "Chile", "geoPoint": {"lat": -33.45694, "lon": -70.64827}}, {"facility": "Investigational Site Number 1520020", "city": "Santiago", "zip": "7770086", "country": "Chile", "geoPoint": {"lat": -33.45694, "lon": -70.64827}}, {"facility": "Investigational Site Number 1520009", "city": "Santiago", "zip": "8053095", "country": "Chile", "geoPoint": {"lat": -33.45694, "lon": -70.64827}}, {"facility": "Investigational Site Number 1520011", "city": "Santiago", "zip": "8207257", "country": "Chile", "geoPoint": {"lat": -33.45694, "lon": -70.64827}}, {"facility": "Investigational Site Number 1520026", "city": "Santiago", "zip": "833-0024", "country": "Chile", "geoPoint": {"lat": -33.45694, "lon": -70.64827}}, {"facility": "Investigational Site Number 1520010", "city": "Santiago", "zip": "8330336", "country": "Chile", "geoPoint": {"lat": -33.45694, "lon": -70.64827}}, {"facility": "Investigational Site Number 1520007", "city": "Santiago", "zip": "8380456", "country": "Chile", "geoPoint": {"lat": -33.45694, "lon": -70.64827}}, {"facility": "Investigational Site Number 1520021", "city": "Santiago", "zip": "8900132", "country": "Chile", "geoPoint": {"lat": -33.45694, "lon": -70.64827}}, {"facility": "Investigational Site Number 1520022", "city": "Santiago", "zip": "8910131", "country": "Chile", "geoPoint": {"lat": -33.45694, "lon": -70.64827}}, {"facility": "Investigational Site Number 1520002", "city": "Santiago", "country": "Chile", "geoPoint": {"lat": -33.45694, "lon": -70.64827}}, {"facility": "Investigational Site Number 1520024", "city": "Talca", "country": "Chile", "geoPoint": {"lat": -35.4264, "lon": -71.65542}}, {"facility": "Investigational Site Number 1520019", "city": "Temuco", "zip": "4781156", "country": "Chile", "geoPoint": {"lat": -38.73965, "lon": -72.59842}}, {"facility": "Investigational Site Number 1520025", "city": "Temuco", "zip": "4781173", "country": "Chile", "geoPoint": {"lat": -38.73965, "lon": -72.59842}}, {"facility": "Investigational Site Number 1520005", "city": "Temuco", "zip": "4813299", "country": "Chile", "geoPoint": {"lat": -38.73965, "lon": -72.59842}}, {"facility": "Investigational Site Number 1520008", "city": "Vi\u00f1a Del Mar", "country": "Chile", "geoPoint": {"lat": -33.02457, "lon": -71.55183}}, {"facility": "Investigational Site Number 1560019", "city": "Beijing", "zip": "100034", "country": "China", "geoPoint": {"lat": 39.9075, "lon": 116.39723}}, {"facility": "Investigational Site Number 1560001", "city": "Beijing", "zip": "100037", "country": "China", "geoPoint": {"lat": 39.9075, "lon": 116.39723}}, {"facility": "Investigational Site Number 1560002", "city": "Beijing", "zip": "100044", "country": "China", "geoPoint": {"lat": 39.9075, "lon": 116.39723}}, {"facility": "Investigational Site Number 1560003", "city": "Beijing", "zip": "100730", "country": "China", "geoPoint": {"lat": 39.9075, "lon": 116.39723}}, {"facility": "Investigational Site Number 1560032", "city": "Beijing", "zip": "100730", "country": "China", "geoPoint": {"lat": 39.9075, "lon": 116.39723}}, {"facility": "Investigational Site Number 1560012", "city": "Changchun", "zip": "130021", "country": "China", "geoPoint": {"lat": 43.88, "lon": 125.32278}}, {"facility": "Investigational Site Number 1560023", "city": "Changchun", "zip": "130021", "country": "China", "geoPoint": {"lat": 43.88, "lon": 125.32278}}, {"facility": "Investigational Site Number 1560034", "city": "Changchun", "zip": "130033", "country": "China", "geoPoint": {"lat": 43.88, "lon": 125.32278}}, {"facility": "Investigational Site Number 1560022", "city": "Changsha", "zip": "410013", "country": "China", "geoPoint": {"lat": 28.19874, "lon": 112.97087}}, {"facility": "Investigational Site Number 1560021", "city": "Chengdu", "zip": "610041", "country": "China", "geoPoint": {"lat": 30.66667, "lon": 104.06667}}, {"facility": "Investigational Site Number 1560018", "city": "Dalian", "zip": "116011", "country": "China", "geoPoint": {"lat": 38.91222, "lon": 121.60222}}, {"facility": "Investigational Site Number 1560010", "city": "Dalian", "zip": "116033", "country": "China", "geoPoint": {"lat": 38.91222, "lon": 121.60222}}, {"facility": "Investigational Site Number 1560007", "city": "Guangzhou", "zip": "510080", "country": "China", "geoPoint": {"lat": 23.11667, "lon": 113.25}}, {"facility": "Investigational Site Number 1560016", "city": "Haikou", "zip": "570102", "country": "China", "geoPoint": {"lat": 20.04583, "lon": 110.34167}}, {"facility": "Investigational Site Number 1560033", "city": "Hengyang", "zip": "421001", "country": "China", "geoPoint": {"lat": 26.88946, "lon": 112.61888}}, {"facility": "Investigational Site Number 1560038", "city": "Hohhot", "zip": "010020", "country": "China", "geoPoint": {"lat": 40.81056, "lon": 111.65222}}, {"facility": "Investigational Site Number 1560005", "city": "Huai'An", "zip": "223300", "country": "China", "geoPoint": {"lat": 33.50389, "lon": 119.14417}}, {"facility": "Investigational Site Number 1560009", "city": "Jinan", "zip": "250013", "country": "China", "geoPoint": {"lat": 36.66833, "lon": 116.99722}}, {"facility": "Investigational Site Number 1560037", "city": "Jining", "country": "China", "geoPoint": {"lat": 35.405, "lon": 116.58139}}, {"facility": "Investigational Site Number 1560031", "city": "Nanchang", "zip": "330006", "country": "China", "geoPoint": {"lat": 28.68396, "lon": 115.85306}}, {"facility": "Investigational Site Number 1560004", "city": "Nanjing", "zip": "210008", "country": "China", "geoPoint": {"lat": 32.06167, "lon": 118.77778}}, {"facility": "Investigational Site Number 1560006", "city": "Shanghai", "zip": "200120", "country": "China", "geoPoint": {"lat": 31.22222, "lon": 121.45806}}, {"facility": "Investigational Site Number 1560036", "city": "Shenyang", "zip": "110016", "country": "China", "geoPoint": {"lat": 41.79222, "lon": 123.43278}}, {"facility": "Investigational Site Number 1560020", "city": "Siping", "zip": "136000", "country": "China", "geoPoint": {"lat": 43.16143, "lon": 124.37785}}, {"facility": "Investigational Site Number 1560025", "city": "Suzhou", "zip": "215004", "country": "China", "geoPoint": {"lat": 31.30408, "lon": 120.59538}}, {"facility": "Investigational Site Number 1560014", "city": "Suzhou", "zip": "215006", "country": "China", "geoPoint": {"lat": 31.30408, "lon": 120.59538}}, {"facility": "Investigational Site Number 1560026", "city": "Taizhou", "zip": "317000", "country": "China", "geoPoint": {"lat": 32.49069, "lon": 119.90812}}, {"facility": "Investigational Site Number 1560028", "city": "Tianjin", "zip": "300121", "country": "China", "geoPoint": {"lat": 39.14222, "lon": 117.17667}}, {"facility": "Investigational Site Number 1560029", "city": "Tianjin", "zip": "300211", "country": "China", "geoPoint": {"lat": 39.14222, "lon": 117.17667}}, {"facility": "Investigational Site Number 1560024", "city": "Wuhan", "zip": "430033", "country": "China", "geoPoint": {"lat": 30.58333, "lon": 114.26667}}, {"facility": "Investigational Site Number 1560027", "city": "Xi'An", "zip": "710061", "country": "China", "geoPoint": {"lat": 34.25833, "lon": 108.92861}}, {"facility": "Investigational Site Number 1560035", "city": "Xinxiang", "zip": "453000", "country": "China", "geoPoint": {"lat": 35.19033, "lon": 113.80151}}, {"facility": "Investigational Site Number 1560008", "city": "Zhenjiang", "zip": "212001", "country": "China", "geoPoint": {"lat": 32.21086, "lon": 119.45508}}, {"facility": "Investigational Site Number 2030012", "city": "Brno", "zip": "62500", "country": "Czechia", "geoPoint": {"lat": 49.19522, "lon": 16.60796}}, {"facility": "Investigational Site Number 2030002", "city": "Brno", "zip": "63900", "country": "Czechia", "geoPoint": {"lat": 49.19522, "lon": 16.60796}}, {"facility": "Investigational Site Number 2030021", "city": "Broumov", "zip": "550 01", "country": "Czechia", "geoPoint": {"lat": 50.58566, "lon": 16.33181}}, {"facility": "Investigational Site Number 2030017", "city": "Humpolec", "zip": "396 01", "country": "Czechia", "geoPoint": {"lat": 49.54152, "lon": 15.35932}}, {"facility": "Investigational Site Number 2030014", "city": "Liberec", "zip": "46063", "country": "Czechia", "geoPoint": {"lat": 50.76711, "lon": 15.05619}}, {"facility": "Investigational Site Number 2030007", "city": "Marianske Lazne", "zip": "353 01", "country": "Czechia", "geoPoint": {"lat": 49.96459, "lon": 12.70118}}, {"facility": "Investigational Site Number 2030015", "city": "Mestec Kralove", "zip": "28903", "country": "Czechia", "geoPoint": {"lat": 50.20718, "lon": 15.29758}}, {"facility": "Investigational Site Number 2030009", "city": "Plzen", "zip": "301 00", "country": "Czechia", "geoPoint": {"lat": 49.74747, "lon": 13.37759}}, {"facility": "Investigational Site Number 2030016", "city": "Praha 10", "zip": "10800", "country": "Czechia", "geoPoint": {"lat": 50.08804, "lon": 14.42076}}, {"facility": "Investigational Site Number 2030019", "city": "Praha 1", "zip": "11694", "country": "Czechia", "geoPoint": {"lat": 50.08804, "lon": 14.42076}}, {"facility": "Investigational Site Number 2030006", "city": "Praha 2", "zip": "12808", "country": "Czechia", "geoPoint": {"lat": 50.08804, "lon": 14.42076}}, {"facility": "Investigational Site Number 2030005", "city": "Praha 4", "zip": "14021", "country": "Czechia", "geoPoint": {"lat": 50.08804, "lon": 14.42076}}, {"facility": "Investigational Site Number 2030011", "city": "Praha 6", "zip": "16900", "country": "Czechia", "geoPoint": {"lat": 50.08804, "lon": 14.42076}}, {"facility": "Investigational Site Number 2030018", "city": "Praha 8", "zip": "18100", "country": "Czechia", "geoPoint": {"lat": 50.08804, "lon": 14.42076}}, {"facility": "Investigational Site Number 2030010", "city": "Revnice", "zip": "25230", "country": "Czechia", "geoPoint": {"lat": 49.91395, "lon": 14.23589}}, {"facility": "Investigational Site Number 2030020", "city": "Slany", "zip": "27401", "country": "Czechia", "geoPoint": {"lat": 50.23046, "lon": 14.08693}}, {"facility": "Investigational Site Number 2030001", "city": "Trutnov", "zip": "54101", "country": "Czechia", "geoPoint": {"lat": 50.56101, "lon": 15.9127}}, {"facility": "Investigational Site Number 2030008", "city": "Vsetin", "zip": "75501", "country": "Czechia", "geoPoint": {"lat": 49.33871, "lon": 17.99619}}, {"facility": "Investigational Site Number 2080003", "city": "Aarhus N", "zip": "8200", "country": "Denmark", "geoPoint": {"lat": 56.15674, "lon": 10.21076}}, {"facility": "Investigational Site Number 2080005", "city": "Aarhus N", "zip": "8200", "country": "Denmark", "geoPoint": {"lat": 56.15674, "lon": 10.21076}}, {"facility": "Investigational Site Number 2080009", "city": "Gentofte", "zip": "2900", "country": "Denmark", "geoPoint": {"lat": 55.74903, "lon": 12.54601}}, {"facility": "Investigational Site Number 2080004", "city": "Herlev", "zip": "2730", "country": "Denmark", "geoPoint": {"lat": 55.72366, "lon": 12.43998}}, {"facility": "Investigational Site Number 2080008", "city": "Hvidovre", "zip": "2650", "country": "Denmark", "geoPoint": {"lat": 55.65719, "lon": 12.47364}}, {"facility": "Investigational Site Number 2080002", "city": "K\u00f8benhavn Nv", "zip": "2400", "country": "Denmark", "geoPoint": {"lat": 55.67594, "lon": 12.56553}}, {"facility": "Investigational Site Number 2080007", "city": "Slagelse", "zip": "4200", "country": "Denmark", "geoPoint": {"lat": 55.40276, "lon": 11.35459}}, {"facility": "Investigational Site Number 2080006", "city": "Svendborg", "zip": "5700", "country": "Denmark", "geoPoint": {"lat": 55.05982, "lon": 10.60677}}, {"facility": "Investigational Site Number 2330003", "city": "Tallinn", "zip": "10138", "country": "Estonia", "geoPoint": {"lat": 59.43696, "lon": 24.75353}}, {"facility": "Investigational Site Number 2330001", "city": "Tallinn", "zip": "13419", "country": "Estonia", "geoPoint": {"lat": 59.43696, "lon": 24.75353}}, {"facility": "Investigational Site Number 2330002", "city": "Tartu", "zip": "51014", "country": "Estonia", "geoPoint": {"lat": 58.38062, "lon": 26.72509}}, {"facility": "Investigational Site Number 2500003", "city": "Corbeil-Essonnes", "zip": "91106", "country": "France", "geoPoint": {"lat": 48.60603, "lon": 2.48757}}, {"facility": "Investigational Site Number 2500002", "city": "La Rochelle Cedex", "zip": "17019", "country": "France", "geoPoint": {"lat": 46.16667, "lon": -1.15}}, {"facility": "Investigational Site Number 2500001", "city": "Paris Cedex 18", "zip": "75877", "country": "France", "geoPoint": {"lat": 48.85341, "lon": 2.3488}}, {"facility": "Investigational Site Number 2500005", "city": "Paris", "zip": "75010", "country": "France", "geoPoint": {"lat": 48.85341, "lon": 2.3488}}, {"facility": "Investigational Site Number 2500006", "city": "Paris", "zip": "75018", "country": "France", "geoPoint": {"lat": 48.85341, "lon": 2.3488}}, {"facility": "Investigational Site Number 2500004", "city": "Toulouse Cedex 9", "zip": "31059", "country": "France", "geoPoint": {"lat": 43.60426, "lon": 1.44367}}, {"facility": "Investigational Site Number 2500007", "city": "Venissieux", "zip": "69200", "country": "France", "geoPoint": {"lat": 45.70254, "lon": 4.87147}}, {"facility": "Investigational Site Number 2680004", "city": "Batumi", "zip": "6010", "country": "Georgia", "geoPoint": {"lat": 41.64228, "lon": 41.63392}}, {"facility": "Investigational Site Number 2680001", "city": "Kutaisi", "country": "Georgia", "geoPoint": {"lat": 42.26791, "lon": 42.69459}}, {"facility": "Investigational Site Number 2680007", "city": "Tbilisi", "zip": "0159", "country": "Georgia", "geoPoint": {"lat": 41.69411, "lon": 44.83368}}, {"facility": "Investigational Site Number 2680005", "city": "Tbilisi", "zip": "102", "country": "Georgia", "geoPoint": {"lat": 41.69411, "lon": 44.83368}}, {"facility": "Investigational Site Number 2680003", "city": "Tbilisi", "zip": "159", "country": "Georgia", "geoPoint": {"lat": 41.69411, "lon": 44.83368}}, {"facility": "Investigational Site Number 2680006", "city": "Tbilisi", "zip": "159", "country": "Georgia", "geoPoint": {"lat": 41.69411, "lon": 44.83368}}, {"facility": "Investigational Site Number 2680002", "city": "Tbilisi", "country": "Georgia", "geoPoint": {"lat": 41.69411, "lon": 44.83368}}, {"facility": "Investigational Site Number 2760008", "city": "Berlin", "zip": "12351", "country": "Germany", "geoPoint": {"lat": 52.52437, "lon": 13.41053}}, {"facility": "Investigational Site Number 2760005", "city": "Essen", "zip": "45136", "country": "Germany", "geoPoint": {"lat": 51.45657, "lon": 7.01228}}, {"facility": "Investigational Site Number 2760001", "city": "Freiburg", "zip": "79106", "country": "Germany", "geoPoint": {"lat": 47.9959, "lon": 7.85222}}, {"facility": "Investigational Site Number 2760007", "city": "Hamburg", "zip": "22041", "country": "Germany", "geoPoint": {"lat": 53.57532, "lon": 10.01534}}, {"facility": "Investigational Site Number 2760002", "city": "Kassel", "zip": "34121", "country": "Germany", "geoPoint": {"lat": 51.31667, "lon": 9.5}}, {"facility": "Investigational Site Number 2760006", "city": "Leipzig", "zip": "04103", "country": "Germany", "geoPoint": {"lat": 51.33962, "lon": 12.37129}}, {"facility": "Investigational Site Number 2760003", "city": "M\u00fcnster", "zip": "48149", "country": "Germany", "geoPoint": {"lat": 51.96236, "lon": 7.62571}}, {"facility": "Investigational Site Number 2760009", "city": "Oldenburg In Holstein", "zip": "23758", "country": "Germany", "geoPoint": {"lat": 54.29576, "lon": 10.90156}}, {"facility": "Investigational Site Number 3000001", "city": "Athens", "zip": "11527", "country": "Greece", "geoPoint": {"lat": 37.97945, "lon": 23.71622}}, {"facility": "Investigational Site Number 3000002", "city": "Ioannina", "zip": "45500", "country": "Greece", "geoPoint": {"lat": 39.66486, "lon": 20.85189}}, {"facility": "Investigational Site Number 3000004", "city": "Larissa", "zip": "41110", "country": "Greece", "geoPoint": {"lat": 39.63689, "lon": 22.41761}}, {"facility": "Investigational Site Number 3000003", "city": "Pireas", "zip": "18454", "country": "Greece"}, {"facility": "Investigational Site Number 3000005", "city": "Thessaloniki", "zip": "54629", "country": "Greece", "geoPoint": {"lat": 40.64361, "lon": 22.93086}}, {"facility": "Investigational Site Number 3200007", "city": "Guatemala", "zip": "01001", "country": "Guatemala", "geoPoint": {"lat": 14.64072, "lon": -90.51327}}, {"facility": "Investigational Site Number 3200013", "city": "Guatemala", "zip": "01010", "country": "Guatemala", "geoPoint": {"lat": 14.64072, "lon": -90.51327}}, {"facility": "Investigational Site Number 3200001", "city": "Guatemala", "zip": "01014", "country": "Guatemala", "geoPoint": {"lat": 14.64072, "lon": -90.51327}}, {"facility": "Investigational Site Number 3200002", "city": "Guatemala", "zip": "1010", "country": "Guatemala", "geoPoint": {"lat": 14.64072, "lon": -90.51327}}, {"facility": "Investigational Site Number 3200009", "city": "Guatemala", "zip": "1010", "country": "Guatemala", "geoPoint": {"lat": 14.64072, "lon": -90.51327}}, {"facility": "Investigational Site Number 3200010", "city": "Guatemala", "country": "Guatemala", "geoPoint": {"lat": 14.64072, "lon": -90.51327}}, {"facility": "Investigational Site Number 3200006", "city": "Quetzaltenango", "zip": "09001", "country": "Guatemala", "geoPoint": {"lat": 14.83472, "lon": -91.51806}}, {"facility": "Investigational Site Number 3200014", "city": "Quetzaltenango", "zip": "09001", "country": "Guatemala", "geoPoint": {"lat": 14.83472, "lon": -91.51806}}, {"facility": "Investigational Site Number 3200004", "city": "Quetzaltenango", "zip": "9011", "country": "Guatemala", "geoPoint": {"lat": 14.83472, "lon": -91.51806}}, {"facility": "Investigational Site Number 3480017", "city": "Budapest", "zip": "1027", "country": "Hungary", "geoPoint": {"lat": 47.49801, "lon": 19.03991}}, {"facility": "Investigational Site Number 3480004", "city": "Budapest", "zip": "1042", "country": "Hungary", "geoPoint": {"lat": 47.49801, "lon": 19.03991}}, {"facility": "Investigational Site Number 3480011", "city": "Budapest", "zip": "1096", "country": "Hungary", "geoPoint": {"lat": 47.49801, "lon": 19.03991}}, {"facility": "Investigational Site Number 3480001", "city": "Budapest", "zip": "1122", "country": "Hungary", "geoPoint": {"lat": 47.49801, "lon": 19.03991}}, {"facility": "Investigational Site Number 3480010", "city": "Budapest", "zip": "1125", "country": "Hungary", "geoPoint": {"lat": 47.49801, "lon": 19.03991}}, {"facility": "Investigational Site Number 3480012", "city": "Budapest", "zip": "1134", "country": "Hungary", "geoPoint": {"lat": 47.49801, "lon": 19.03991}}, {"facility": "Investigational Site Number 3480016", "city": "Budapest", "zip": "1145", "country": "Hungary", "geoPoint": {"lat": 47.49801, "lon": 19.03991}}, {"facility": "Investigational Site Number 3480018", "city": "Budapest", "zip": "1204", "country": "Hungary", "geoPoint": {"lat": 47.49801, "lon": 19.03991}}, {"facility": "Investigational Site Number 3480006", "city": "B\u00e9k\u00e9scsaba", "zip": "5600", "country": "Hungary", "geoPoint": {"lat": 46.68333, "lon": 21.1}}, {"facility": "Investigational Site Number 3480002", "city": "Debrecen", "zip": "4032", "country": "Hungary", "geoPoint": {"lat": 47.53333, "lon": 21.63333}}, {"facility": "Investigational Site Number 3480008", "city": "Debrecen", "zip": "4032", "country": "Hungary", "geoPoint": {"lat": 47.53333, "lon": 21.63333}}, {"facility": "Investigational Site Number 3480013", "city": "Kaposv\u00e1r", "zip": "7400", "country": "Hungary", "geoPoint": {"lat": 46.36667, "lon": 17.8}}, {"facility": "Investigational Site Number 3480014", "city": "Ny\u00edregyh\u00e1za", "zip": "4400", "country": "Hungary", "geoPoint": {"lat": 47.95539, "lon": 21.71671}}, {"facility": "Investigational Site Number 3480015", "city": "Ny\u00edregyh\u00e1za", "zip": "4400", "country": "Hungary", "geoPoint": {"lat": 47.95539, "lon": 21.71671}}, {"facility": "Investigational Site Number 3480003", "city": "Szekesfehervar", "zip": "8000", "country": "Hungary", "geoPoint": {"lat": 47.18995, "lon": 18.41034}}, {"facility": "Investigational Site Number 3480007", "city": "Zalaegerszeg", "zip": "8900", "country": "Hungary", "geoPoint": {"lat": 46.84, "lon": 16.84389}}, {"facility": "Investigational Site Number 3560025", "city": "Ahmedabad", "zip": "380060", "country": "India", "geoPoint": {"lat": 23.02579, "lon": 72.58727}}, {"facility": "Investigational Site Number 3560040", "city": "Aurangabad", "zip": "431003", "country": "India", "geoPoint": {"lat": 19.87757, "lon": 75.34226}}, {"facility": "Investigational Site Number 3560010", "city": "Bangalore", "zip": "560 034", "country": "India", "geoPoint": {"lat": 12.97194, "lon": 77.59369}}, {"facility": "Investigational Site Number 3560026", "city": "Bangalore", "zip": "560 054.", "country": "India", "geoPoint": {"lat": 12.97194, "lon": 77.59369}}, {"facility": "Investigational Site Number 3560005", "city": "Belgaum", "zip": "590010", "country": "India", "geoPoint": {"lat": 15.85212, "lon": 74.50447}}, {"facility": "Investigational Site Number 3560008", "city": "Bengaluru", "zip": "560017", "country": "India", "geoPoint": {"lat": 12.97194, "lon": 77.59369}}, {"facility": "Investigational Site Number 3560022", "city": "Chandigarh", "zip": "160062", "country": "India", "geoPoint": {"lat": 30.73629, "lon": 76.7884}}, {"facility": "Investigational Site Number 3560003", "city": "Gurgaon", "zip": "122001", "country": "India", "geoPoint": {"lat": 28.4601, "lon": 77.02635}}, {"facility": "Investigational Site Number 3560004", "city": "Gurgaon", "zip": "122001", "country": "India", "geoPoint": {"lat": 28.4601, "lon": 77.02635}}, {"facility": "Investigational Site Number 3560018", "city": "Hyderabad", "zip": "500001", "country": "India", "geoPoint": {"lat": 17.38405, "lon": 78.45636}}, {"facility": "Investigational Site Number 3560001", "city": "Hyderabad", "zip": "500012", "country": "India", "geoPoint": {"lat": 17.38405, "lon": 78.45636}}, {"facility": "Investigational Site Number 3560007", "city": "Hyderabad", "zip": "500063", "country": "India", "geoPoint": {"lat": 17.38405, "lon": 78.45636}}, {"facility": "Investigational Site Number 3560002", "city": "Jaipur", "zip": "302017", "country": "India", "geoPoint": {"lat": 26.91962, "lon": 75.78781}}, {"facility": "Investigational Site Number 3560024", "city": "Kochi", "country": "India", "geoPoint": {"lat": 9.93988, "lon": 76.26022}}, {"facility": "Investigational Site Number 3560016", "city": "Kolkata", "zip": "700027", "country": "India", "geoPoint": {"lat": 22.56263, "lon": 88.36304}}, {"facility": "Investigational Site Number 3560030", "city": "Kozhikode", "zip": "673008", "country": "India", "geoPoint": {"lat": 11.24802, "lon": 75.7804}}, {"facility": "Investigational Site Number 3560006", "city": "Ludhiana", "zip": "141008", "country": "India", "geoPoint": {"lat": 30.91204, "lon": 75.85379}}, {"facility": "Investigational Site Number 3560027", "city": "Mangalore", "zip": "575002", "country": "India", "geoPoint": {"lat": 12.91723, "lon": 74.85603}}, {"facility": "Investigational Site Number 3560028", "city": "Mangalore", "zip": "575018", "country": "India", "geoPoint": {"lat": 12.91723, "lon": 74.85603}}, {"facility": "Investigational Site Number 3560017", "city": "Mumbai", "country": "India", "geoPoint": {"lat": 19.07283, "lon": 72.88261}}, {"facility": "Investigational Site Number 3560037", "city": "Mysore", "zip": "570015", "country": "India", "geoPoint": {"lat": 12.29791, "lon": 76.63925}}, {"facility": "Investigational Site Number 3560013", "city": "Nagpur", "zip": "440009", "country": "India", "geoPoint": {"lat": 21.14631, "lon": 79.08491}}, {"facility": "Investigational Site Number 3560014", "city": "Nagpur", "zip": "440010", "country": "India", "geoPoint": {"lat": 21.14631, "lon": 79.08491}}, {"facility": "Investigational Site Number 3560021", "city": "Nashik", "zip": "42003", "country": "India", "geoPoint": {"lat": 19.99727, "lon": 73.79096}}, {"facility": "Investigational Site Number 3560041", "city": "New Delhi", "zip": "110 029", "country": "India", "geoPoint": {"lat": 28.63576, "lon": 77.22445}}, {"facility": "Investigational Site Number 3560034", "city": "New Delhi", "zip": "110002", "country": "India", "geoPoint": {"lat": 28.63576, "lon": 77.22445}}, {"facility": "Investigational Site Number 3560019", "city": "Pune", "zip": "411001", "country": "India", "geoPoint": {"lat": 18.51957, "lon": 73.85535}}, {"facility": "Investigational Site Number 3560035", "city": "Pune", "zip": "411004", "country": "India", "geoPoint": {"lat": 18.51957, "lon": 73.85535}}, {"facility": "Investigational Site Number 3560042", "city": "Pune", "zip": "411004", "country": "India", "geoPoint": {"lat": 18.51957, "lon": 73.85535}}, {"facility": "Investigational Site Number 3560038", "city": "Pune", "zip": "411010", "country": "India", "geoPoint": {"lat": 18.51957, "lon": 73.85535}}, {"facility": "Investigational Site Number 3560012", "city": "Pune", "zip": "411019", "country": "India", "geoPoint": {"lat": 18.51957, "lon": 73.85535}}, {"facility": "Investigational Site Number 3560043", "city": "Varanasi", "zip": "221 005", "country": "India", "geoPoint": {"lat": 25.31668, "lon": 83.01041}}, {"facility": "Investigational Site Number 3560020", "city": "Vellore", "zip": "632004", "country": "India", "geoPoint": {"lat": 12.9184, "lon": 79.13255}}, {"facility": "Investigational Site Number 3560015", "city": "Wardha", "zip": "442004", "country": "India", "geoPoint": {"lat": 20.73933, "lon": 78.59784}}, {"facility": "Investigational Site Number 3760008", "city": "Beer Sheva", "zip": "84101", "country": "Israel", "geoPoint": {"lat": 31.25181, "lon": 34.7913}}, {"facility": "Investigational Site Number 3760005", "city": "Haifa", "zip": "31048", "country": "Israel", "geoPoint": {"lat": 32.81841, "lon": 34.9885}}, {"facility": "Investigational Site Number 3760007", "city": "Haifa", "zip": "31096", "country": "Israel", "geoPoint": {"lat": 32.81841, "lon": 34.9885}}, {"facility": "Investigational Site Number 3760001", "city": "Jerusalem", "zip": "91031", "country": "Israel", "geoPoint": {"lat": 31.76904, "lon": 35.21633}}, {"facility": "Investigational Site Number 3760002", "city": "Jerusalem", "zip": "91120", "country": "Israel", "geoPoint": {"lat": 31.76904, "lon": 35.21633}}, {"facility": "Investigational Site Number 3760004", "city": "Nahariya", "zip": "22100", "country": "Israel", "geoPoint": {"lat": 33.00892, "lon": 35.09814}}, {"facility": "Investigational Site Number 3760003", "city": "Tel Aviv", "zip": "64239", "country": "Israel", "geoPoint": {"lat": 32.08088, "lon": 34.78057}}, {"facility": "Investigational Site Number 3760006", "city": "Tel Hashomer", "zip": "52621", "country": "Israel", "geoPoint": {"lat": 32.04195, "lon": 34.85623}}, {"facility": "Investigational Site Number 3800006", "city": "Catanzaro", "zip": "88100", "country": "Italy", "geoPoint": {"lat": 38.88247, "lon": 16.60086}}, {"facility": "Investigational Site Number 3800010", "city": "Catanzaro", "zip": "88100", "country": "Italy", "geoPoint": {"lat": 38.88247, "lon": 16.60086}}, {"facility": "Investigational Site Number 3800009", "city": "Chieri", "zip": "10023", "country": "Italy", "geoPoint": {"lat": 45.01054, "lon": 7.82133}}, {"facility": "Investigational Site Number 3800007", "city": "Livorno", "zip": "57123", "country": "Italy", "geoPoint": {"lat": 43.54427, "lon": 10.32615}}, {"facility": "Investigational Site Number 3800002", "city": "Milano", "zip": "20132", "country": "Italy", "geoPoint": {"lat": 45.46427, "lon": 9.18951}}, {"facility": "Investigational Site Number 3800008", "city": "Milano", "zip": "20145", "country": "Italy", "geoPoint": {"lat": 45.46427, "lon": 9.18951}}, {"facility": "Investigational Site Number 3800005", "city": "Orbassano", "zip": "10043", "country": "Italy", "geoPoint": {"lat": 45.00547, "lon": 7.53813}}, {"facility": "Investigational Site Number 3800011", "city": "Ravenna", "zip": "48100", "country": "Italy", "geoPoint": {"lat": 44.41344, "lon": 12.20121}}, {"facility": "Investigational Site Number 3800004", "city": "Roma", "zip": "00133", "country": "Italy", "geoPoint": {"lat": 41.89193, "lon": 12.51133}}, {"facility": "Investigational Site Number 3800001", "city": "Verona", "zip": "37126", "country": "Italy", "geoPoint": {"lat": 45.4299, "lon": 10.98444}}, {"facility": "Investigational Site Number 4100011", "city": "Bucheon-Si", "zip": "14647", "country": "Korea, Republic of", "geoPoint": {"lat": 37.49889, "lon": 126.78306}}, {"facility": "Investigational Site Number 4100005", "city": "Busan", "zip": "49201", "country": "Korea, Republic of", "geoPoint": {"lat": 35.10278, "lon": 129.04028}}, {"facility": "Investigational Site Number 4100007", "city": "Gwangju", "zip": "61469", "country": "Korea, Republic of", "geoPoint": {"lat": 35.15472, "lon": 126.91556}}, {"facility": "Investigational Site Number 4100001", "city": "Incheon", "zip": "22332", "country": "Korea, Republic of", "geoPoint": {"lat": 37.45646, "lon": 126.70515}}, {"facility": "Investigational Site Number 4100002", "city": "Seongnam-Si", "zip": "13620", "country": "Korea, Republic of", "geoPoint": {"lat": 37.43861, "lon": 127.13778}}, {"facility": "Investigational Site Number 4100003", "city": "Seoul", "zip": "03080", "country": "Korea, Republic of", "geoPoint": {"lat": 37.566, "lon": 126.9784}}, {"facility": "Investigational Site Number 4100006", "city": "Seoul", "zip": "03722", "country": "Korea, Republic of", "geoPoint": {"lat": 37.566, "lon": 126.9784}}, {"facility": "Investigational Site Number 4100008", "city": "Seoul", "zip": "05505", "country": "Korea, Republic of", "geoPoint": {"lat": 37.566, "lon": 126.9784}}, {"facility": "Investigational Site Number 4100004", "city": "Seoul", "zip": "06351", "country": "Korea, Republic of", "geoPoint": {"lat": 37.566, "lon": 126.9784}}, {"facility": "Investigational Site Number 4100010", "city": "Uijeongbu-Si", "zip": "11765", "country": "Korea, Republic of", "geoPoint": {"lat": 37.7415, "lon": 127.0474}}, {"facility": "Investigational Site Number 4280004", "city": "Daugavpils", "zip": "LV-5417", "country": "Latvia", "geoPoint": {"lat": 55.88333, "lon": 26.53333}}, {"facility": "Investigational Site Number 4280002", "city": "Liep\u0101ja", "zip": "LV3414", "country": "Latvia", "geoPoint": {"lat": 56.51667, "lon": 21.01667}}, {"facility": "Investigational Site Number 4280007", "city": "Ogre", "zip": "LV-5001", "country": "Latvia", "geoPoint": {"lat": 56.8162, "lon": 24.61401}}, {"facility": "Investigational Site Number 4280006", "city": "Riga", "zip": "LV-1002", "country": "Latvia", "geoPoint": {"lat": 56.946, "lon": 24.10589}}, {"facility": "Investigational Site Number 4280001", "city": "Riga", "zip": "LV-1011", "country": "Latvia", "geoPoint": {"lat": 56.946, "lon": 24.10589}}, {"facility": "Investigational Site Number 4280005", "city": "Riga", "zip": "LV-1038", "country": "Latvia", "geoPoint": {"lat": 56.946, "lon": 24.10589}}, {"facility": "Investigational Site Number 4280003", "city": "Sigulda", "zip": "LV-2150", "country": "Latvia", "geoPoint": {"lat": 57.15194, "lon": 24.86472}}, {"facility": "Investigational Site Number 4400006", "city": "Kaunas", "zip": "49449", "country": "Lithuania", "geoPoint": {"lat": 54.90272, "lon": 23.90961}}, {"facility": "Investigational Site Number 4400003", "city": "Kaunas", "zip": "51270", "country": "Lithuania", "geoPoint": {"lat": 54.90272, "lon": 23.90961}}, {"facility": "Investigational Site Number 4400009", "city": "Kaunas", "zip": "LT-50161", "country": "Lithuania", "geoPoint": {"lat": 54.90272, "lon": 23.90961}}, {"facility": "Investigational Site Number 4400008", "city": "Kedainiai", "zip": "LT-57164", "country": "Lithuania", "geoPoint": {"lat": 55.28782, "lon": 23.97276}}, {"facility": "Investigational Site Number 4400004", "city": "Klaipeda", "zip": "92111", "country": "Lithuania", "geoPoint": {"lat": 55.70888, "lon": 21.14311}}, {"facility": "Investigational Site Number 4400002", "city": "Klaipeda", "zip": "LT-92304", "country": "Lithuania", "geoPoint": {"lat": 55.70888, "lon": 21.14311}}, {"facility": "Investigational Site Number 4400007", "city": "Ukmerge", "zip": "20184", "country": "Lithuania", "geoPoint": {"lat": 55.25, "lon": 24.75}}, {"facility": "Investigational Site Number 4400005", "city": "Utena", "zip": "LT-28151", "country": "Lithuania", "geoPoint": {"lat": 55.49765, "lon": 25.59918}}, {"facility": "Investigational Site Number 4400001", "city": "Vilnius", "zip": "08661", "country": "Lithuania", "geoPoint": {"lat": 54.68916, "lon": 25.2798}}, {"facility": "Investigational Site Number 4840009", "city": "Actopan", "zip": "42500", "country": "Mexico", "geoPoint": {"lat": 20.26961, "lon": -98.94377}}, {"facility": "Investigational Site Number 4840013", "city": "Aguascalientes", "zip": "20230", "country": "Mexico", "geoPoint": {"lat": 21.88234, "lon": -102.28259}}, {"facility": "Investigational Site Number 4840019", "city": "Aguascalientes", "zip": "20230", "country": "Mexico", "geoPoint": {"lat": 21.88234, "lon": -102.28259}}, {"facility": "Investigational Site Number 4840018", "city": "Cdmx", "zip": "06760", "country": "Mexico"}, {"facility": "Investigational Site Number 4840005", "city": "Celaya", "zip": "38000", "country": "Mexico", "geoPoint": {"lat": 20.52353, "lon": -100.8157}}, {"facility": "Investigational Site Number 4840002", "city": "Cuernavaca", "zip": "62250", "country": "Mexico", "geoPoint": {"lat": 18.9261, "lon": -99.23075}}, {"facility": "Investigational Site Number 4840025", "city": "Distrito Federal", "zip": "07760", "country": "Mexico", "geoPoint": {"lat": 16.59, "lon": -93.02694}}, {"facility": "Investigational Site Number 4840007", "city": "Durango", "zip": "34000", "country": "Mexico", "geoPoint": {"lat": 24.02032, "lon": -104.65756}}, {"facility": "Investigational Site Number 4840023", "city": "Durango", "zip": "34080", "country": "Mexico", "geoPoint": {"lat": 24.02032, "lon": -104.65756}}, {"facility": "Investigational Site Number 4840033", "city": "Guadalajara", "zip": "44150", "country": "Mexico", "geoPoint": {"lat": 20.66682, "lon": -103.39182}}, {"facility": "Investigational Site Number 4840024", "city": "Guadalajara", "zip": "44160", "country": "Mexico", "geoPoint": {"lat": 20.66682, "lon": -103.39182}}, {"facility": "Investigational Site Number 4840003", "city": "Guadalajara", "zip": "44210", "country": "Mexico", "geoPoint": {"lat": 20.66682, "lon": -103.39182}}, {"facility": "Investigational Site Number 4840011", "city": "Guadalajara", "zip": "44210", "country": "Mexico", "geoPoint": {"lat": 20.66682, "lon": -103.39182}}, {"facility": "Investigational Site Number 4840027", "city": "Guadalajara", "zip": "44280", "country": "Mexico", "geoPoint": {"lat": 20.66682, "lon": -103.39182}}, {"facility": "Investigational Site Number 4840004", "city": "Guadalajara", "zip": "44600", "country": "Mexico", "geoPoint": {"lat": 20.66682, "lon": -103.39182}}, {"facility": "Investigational Site Number 4840010", "city": "Guadalajara", "zip": "44650", "country": "Mexico", "geoPoint": {"lat": 20.66682, "lon": -103.39182}}, {"facility": "Investigational Site Number 4840030", "city": "Guadalajara", "country": "Mexico", "geoPoint": {"lat": 20.66682, "lon": -103.39182}}, {"facility": "Investigational Site Number 4840034", "city": "Merida", "zip": "97070", "country": "Mexico", "geoPoint": {"lat": 20.97537, "lon": -89.61696}}, {"facility": "Investigational Site Number 4840021", "city": "Monterrey", "zip": "64020", "country": "Mexico", "geoPoint": {"lat": 25.67507, "lon": -100.31847}}, {"facility": "Investigational Site Number 4840020", "city": "Monterrey", "zip": "64060", "country": "Mexico", "geoPoint": {"lat": 25.67507, "lon": -100.31847}}, {"facility": "Investigational Site Number 4840001", "city": "Monterrey", "zip": "64460", "country": "Mexico", "geoPoint": {"lat": 25.67507, "lon": -100.31847}}, {"facility": "Investigational Site Number 4840028", "city": "M\u00e9rida", "zip": "72129", "country": "Mexico", "geoPoint": {"lat": 20.97537, "lon": -89.61696}}, {"facility": "Investigational Site Number 4840014", "city": "Queretaro", "zip": "76000", "country": "Mexico"}, {"facility": "Investigational Site Number 4840015", "city": "Toluca", "zip": "50130", "country": "Mexico", "geoPoint": {"lat": 19.28786, "lon": -99.65324}}, {"facility": "Investigational Site Number 4840008", "city": "Veracruz", "zip": "91910", "country": "Mexico", "geoPoint": {"lat": 19.18095, "lon": -96.1429}}, {"facility": "Investigational Site Number 4840016", "city": "Xalapa", "zip": "91193", "country": "Mexico", "geoPoint": {"lat": 19.53124, "lon": -96.91589}}, {"facility": "Investigational Site Number 4840026", "city": "Zapopan", "zip": "45116", "country": "Mexico", "geoPoint": {"lat": 20.72356, "lon": -103.38479}}, {"facility": "Investigational Site Number 5280004", "city": "Almelo", "zip": "7609 PP", "country": "Netherlands", "geoPoint": {"lat": 52.35667, "lon": 6.6625}}, {"facility": "Investigational Site Number 5280001", "city": "Groningen", "zip": "9728 NT", "country": "Netherlands", "geoPoint": {"lat": 53.21917, "lon": 6.56667}}, {"facility": "Investigational Site Number 5280003", "city": "Hoogeveen", "zip": "7909 AA", "country": "Netherlands", "geoPoint": {"lat": 52.7225, "lon": 6.47639}}, {"facility": "Investigational Site Number 5280005", "city": "Meppel", "zip": "7943 KA", "country": "Netherlands", "geoPoint": {"lat": 52.69583, "lon": 6.19444}}, {"facility": "Investigational Site Number 5280002", "city": "Rotterdam", "zip": "3045 PM", "country": "Netherlands", "geoPoint": {"lat": 51.9225, "lon": 4.47917}}, {"facility": "Investigational Site Number 5540014", "city": "Auckland", "zip": "1023", "country": "New Zealand", "geoPoint": {"lat": -36.84853, "lon": 174.76349}}, {"facility": "Investigational Site Number 5540006", "city": "Birkenhead", "zip": "0626", "country": "New Zealand", "geoPoint": {"lat": -36.8082, "lon": 174.72019}}, {"facility": "Investigational Site Number 5540009", "city": "Birkenhead", "zip": "0626", "country": "New Zealand", "geoPoint": {"lat": -36.8082, "lon": 174.72019}}, {"facility": "Investigational Site Number 5540002", "city": "Christchurch", "zip": "8011", "country": "New Zealand", "geoPoint": {"lat": -43.53333, "lon": 172.63333}}, {"facility": "Investigational Site Number 5540003", "city": "Christchurch", "country": "New Zealand", "geoPoint": {"lat": -43.53333, "lon": 172.63333}}, {"facility": "Investigational Site Number 5540012", "city": "Christchurch", "country": "New Zealand", "geoPoint": {"lat": -43.53333, "lon": 172.63333}}, {"facility": "Investigational Site Number 5540007", "city": "Dunedin", "zip": "9016", "country": "New Zealand", "geoPoint": {"lat": -45.87416, "lon": 170.50361}}, {"facility": "Investigational Site Number 5540016", "city": "Hamilton", "zip": "3240", "country": "New Zealand", "geoPoint": {"lat": -37.78333, "lon": 175.28333}}, {"facility": "Investigational Site Number 5540013", "city": "New Plymouth", "country": "New Zealand", "geoPoint": {"lat": -39.06667, "lon": 174.08333}}, {"facility": "Investigational Site Number 5540015", "city": "Palmerston North", "zip": "4414", "country": "New Zealand", "geoPoint": {"lat": -40.35636, "lon": 175.61113}}, {"facility": "Investigational Site Number 5540005", "city": "Rotorua", "zip": "3010", "country": "New Zealand", "geoPoint": {"lat": -38.13874, "lon": 176.24516}}, {"facility": "Investigational Site Number 5540010", "city": "Takapuna", "zip": "1309", "country": "New Zealand", "geoPoint": {"lat": -36.79167, "lon": 174.77583}}, {"facility": "Investigational Site Number 5540008", "city": "Tauranga", "zip": "3001", "country": "New Zealand", "geoPoint": {"lat": -37.68611, "lon": 176.16667}}, {"facility": "Investigational Site Number 5540011", "city": "Tauranga", "zip": "3001", "country": "New Zealand", "geoPoint": {"lat": -37.68611, "lon": 176.16667}}, {"facility": "Investigational Site Number 5540004", "city": "Wellington", "zip": "6021", "country": "New Zealand", "geoPoint": {"lat": -41.28664, "lon": 174.77557}}, {"facility": "Investigational Site Number 8070003", "city": "Skopje", "zip": "1000", "country": "North Macedonia", "geoPoint": {"lat": 41.99646, "lon": 21.43141}}, {"facility": "Investigational Site Number 8070005", "city": "Struga", "zip": "6330", "country": "North Macedonia", "geoPoint": {"lat": 41.17799, "lon": 20.67784}}, {"facility": "Investigational Site Number 8070001", "city": "Tetovo", "zip": "1200", "country": "North Macedonia", "geoPoint": {"lat": 42.00973, "lon": 20.97155}}, {"facility": "Investigational Site Number 8070004", "city": "Tetovo", "zip": "1200", "country": "North Macedonia", "geoPoint": {"lat": 42.00973, "lon": 20.97155}}, {"facility": "Investigational Site Number 5780005", "city": "Hamar", "zip": "2317", "country": "Norway", "geoPoint": {"lat": 60.7945, "lon": 11.06798}}, {"facility": "Investigational Site Number 5780001", "city": "H\u00f8nefoss", "zip": "3515", "country": "Norway", "geoPoint": {"lat": 60.16804, "lon": 10.25647}}, {"facility": "Investigational Site Number 5780003", "city": "Oslo", "zip": "0514", "country": "Norway", "geoPoint": {"lat": 59.91273, "lon": 10.74609}}, {"facility": "Investigational Site Number 5780002", "city": "Oslo", "zip": "373", "country": "Norway", "geoPoint": {"lat": 59.91273, "lon": 10.74609}}, {"facility": "Investigational Site Number 5780004", "city": "Skedsmokorset", "zip": "2020", "country": "Norway", "geoPoint": {"lat": 60.00459, "lon": 11.03278}}, {"facility": "Investigational Site Number 6040004", "city": "Arequipa", "country": "Peru", "geoPoint": {"lat": -16.39889, "lon": -71.535}}, {"facility": "Investigational Site Number 6040006", "city": "Callao", "zip": "CALLAO 02", "country": "Peru", "geoPoint": {"lat": -12.05659, "lon": -77.11814}}, {"facility": "Investigational Site Number 6040009", "city": "Callao", "country": "Peru", "geoPoint": {"lat": -12.05659, "lon": -77.11814}}, {"facility": "Investigational Site Number 6040024", "city": "Chancay", "country": "Peru", "geoPoint": {"lat": -11.57139, "lon": -77.26722}}, {"facility": "Investigational Site Number 6040005", "city": "Chiclayo", "country": "Peru", "geoPoint": {"lat": -6.77137, "lon": -79.84088}}, {"facility": "Investigational Site Number 6040010", "city": "Cuzco", "country": "Peru", "geoPoint": {"lat": -13.52264, "lon": -71.96734}}, {"facility": "Investigational Site Number 6040014", "city": "Lima Lima", "zip": "Lima 01", "country": "Peru"}, {"facility": "Investigational Site Number 6040001", "city": "Lima", "zip": "09", "country": "Peru", "geoPoint": {"lat": -12.04318, "lon": -77.02824}}, {"facility": "Investigational Site Number 6040025", "city": "Lima", "zip": "15135", "country": "Peru", "geoPoint": {"lat": -12.04318, "lon": -77.02824}}, {"facility": "Investigational Site Number 6040016", "city": "Lima", "zip": "LIMA 01", "country": "Peru", "geoPoint": {"lat": -12.04318, "lon": -77.02824}}, {"facility": "Investigational Site Number 6040020", "city": "Lima", "zip": "LIMA 14", "country": "Peru", "geoPoint": {"lat": -12.04318, "lon": -77.02824}}, {"facility": "Investigational Site Number 6040013", "city": "Lima", "zip": "Lima 17", "country": "Peru", "geoPoint": {"lat": -12.04318, "lon": -77.02824}}, {"facility": "Investigational Site Number 6040023", "city": "Lima", "zip": "LIMA 27", "country": "Peru", "geoPoint": {"lat": -12.04318, "lon": -77.02824}}, {"facility": "Investigational Site Number 6040007", "city": "Lima", "zip": "Lima 29", "country": "Peru", "geoPoint": {"lat": -12.04318, "lon": -77.02824}}, {"facility": "Investigational Site Number 6040019", "city": "Lima", "zip": "LIMA 31", "country": "Peru", "geoPoint": {"lat": -12.04318, "lon": -77.02824}}, {"facility": "Investigational Site Number 6040022", "city": "Lima", "zip": "LIMA 32", "country": "Peru", "geoPoint": {"lat": -12.04318, "lon": -77.02824}}, {"facility": "Investigational Site Number 6040012", "city": "Lima", "zip": "Lima 41", "country": "Peru", "geoPoint": {"lat": -12.04318, "lon": -77.02824}}, {"facility": "Investigational Site Number 6040017", "city": "Lima", "country": "Peru", "geoPoint": {"lat": -12.04318, "lon": -77.02824}}, {"facility": "Investigational Site Number 6040011", "city": "Piura", "zip": "20000", "country": "Peru", "geoPoint": {"lat": -5.19449, "lon": -80.63282}}, {"facility": "Investigational Site Number 6040002", "city": "Trujillo", "country": "Peru", "geoPoint": {"lat": -8.11599, "lon": -79.02998}}, {"facility": "Investigational Site Number 6160027", "city": "Bialystok", "zip": "15-276", "country": "Poland", "geoPoint": {"lat": 53.13333, "lon": 23.16433}}, {"facility": "Investigational Site Number 6160011", "city": "Bialystok", "zip": "15-435", "country": "Poland", "geoPoint": {"lat": 53.13333, "lon": 23.16433}}, {"facility": "Investigational Site Number 6160029", "city": "Bydgoszcz", "zip": "85-079", "country": "Poland", "geoPoint": {"lat": 53.1235, "lon": 18.00762}}, {"facility": "Investigational Site Number 6160030", "city": "Bydgoszcz", "zip": "85-231", "country": "Poland", "geoPoint": {"lat": 53.1235, "lon": 18.00762}}, {"facility": "Investigational Site Number 6160006", "city": "Bydgoszcz", "zip": "85-822", "country": "Poland", "geoPoint": {"lat": 53.1235, "lon": 18.00762}}, {"facility": "Investigational Site Number 6160018", "city": "Bytom", "zip": "41-902", "country": "Poland", "geoPoint": {"lat": 50.34802, "lon": 18.93282}}, {"facility": "Investigational Site Number 6160002", "city": "Czeladz", "zip": "41-250", "country": "Poland", "geoPoint": {"lat": 50.31542, "lon": 19.07824}}, {"facility": "Investigational Site Number 6160003", "city": "Gdynia", "zip": "81-394", "country": "Poland", "geoPoint": {"lat": 54.51889, "lon": 18.53188}}, {"facility": "Investigational Site Number 6160005", "city": "Gdynia", "zip": "81-472", "country": "Poland", "geoPoint": {"lat": 54.51889, "lon": 18.53188}}, {"facility": "Investigational Site Number 6160008", "city": "Grodzisk Mazowiecki", "zip": "05-825", "country": "Poland", "geoPoint": {"lat": 52.10387, "lon": 20.6337}}, {"facility": "Investigational Site Number 6160031", "city": "Grodzisk Mazowiecki", "zip": "05-825", "country": "Poland", "geoPoint": {"lat": 52.10387, "lon": 20.6337}}, {"facility": "Investigational Site Number 6160023", "city": "Katowice", "zip": "40-611", "country": "Poland", "geoPoint": {"lat": 50.25841, "lon": 19.02754}}, {"facility": "Investigational Site Number 6160026", "city": "Katowice", "zip": "40-748", "country": "Poland", "geoPoint": {"lat": 50.25841, "lon": 19.02754}}, {"facility": "Investigational Site Number 6160022", "city": "Kielce", "zip": "25-525", "country": "Poland", "geoPoint": {"lat": 50.87033, "lon": 20.62752}}, {"facility": "Investigational Site Number 6160019", "city": "Krakow", "zip": "31-135", "country": "Poland", "geoPoint": {"lat": 50.06143, "lon": 19.93658}}, {"facility": "Investigational Site Number 6160024", "city": "Krakow", "zip": "31-261", "country": "Poland", "geoPoint": {"lat": 50.06143, "lon": 19.93658}}, {"facility": "Investigational Site Number 6160010", "city": "Krakow", "zip": "31-548", "country": "Poland", "geoPoint": {"lat": 50.06143, "lon": 19.93658}}, {"facility": "Investigational Site Number 6160016", "city": "Lodz", "zip": "90-242", "country": "Poland", "geoPoint": {"lat": 51.75, "lon": 19.46667}},